University Rank,Name of University,Location,No of student,No of student per staff,International Student,Female:Male Ratio,OverAll Score,Teaching Score,Research Score,Citations Score,Industry Income Score,International Outlook Score,Latitude,Longitude
1,University of Oxford,United Kingdom,"20,965",10.6,42%,48:52:00,96.4,92.3,99.7,99.0,74.9,96.2,51.7579,-1.2618
2,Harvard University,United States,"21,887",9.6,25%,50:50:00,95.2,94.8,99.0,99.3,49.5,80.5,42.3744,-71.1182
3,University of Cambridge,United Kingdom,"20,185",11.3,39%,47:53:00,94.8,90.9,99.5,97.0,54.2,95.8,52.2054,0.1132
3,Stanford University,United States,"16,164",7.1,24%,46:54:00,94.8,94.2,96.7,99.8,65.0,79.8,37.4277,-122.1701
5,Massachusetts Institute of Technology,United States,"11,415",8.2,33%,40 : 60,94.2,90.7,93.6,99.8,90.9,89.3,42.3601,-71.0942
6,California Institute of Technology,United States,"2,237",6.2,34%,37 : 63,94.1,90.9,97.0,97.3,89.8,83.6,34.1377,-118.1253
7,Princeton University,United States,"8,279",8.0,23%,46:54:00,92.4,87.6,95.9,99.1,66.0,80.3,40.3431,-74.6551
8,"University of California, Berkeley",United States,"40,921",18.4,24%,52:48:00,92.1,86.4,95.8,99.0,76.8,78.4,37.8702,-122.2595
9,Yale University,United States,"13,482",5.9,21%,52:48:00,91.4,92.6,92.7,97.0,55.0,70.9,41.3163,-72.9223
10,Imperial College London,United Kingdom,"18,545",11.2,61%,40 : 60,90.4,82.8,90.8,98.3,59.8,97.5,51.4988,-0.1749
11,Columbia University,United States,"21,781",4.5,38%,,89.4,89.4,87.7,97.1,44.8,79.9,40.8075,-73.9626
11,ETH Zurich,Switzerland,"21,665",14.8,41%,33 : 67,89.4,82.6,95.4,90.7,59.1,97.7,47.3764,8.5476
13,The University of Chicago,United States,"15,366",6.0,36%,47:53:00,88.9,86.5,88.8,97.7,56.2,74.2,41.7886,-87.5987
14,University of Pennsylvania,United States,"21,453",6.3,23%,53:47:00,88.8,86.0,88.8,97.0,75.8,71.5,39.9522,-75.1932
15,Johns Hopkins University,United States,"17,584",4.7,29%,53:47:00,88.3,79.4,91.5,97.0,89.5,75.3,39.3299,-76.6205
16,Tsinghua University,,"38,324",11.6,10%,,88.2,90.1,97.4,88.0,100.0,40.3,39.9997,116.3264
17,Peking University,,"31,994",10.3,19%,,88.1,92.5,96.7,80.4,91.8,65.0,39.9869,116.3059
18,University of Toronto,Canada,"77,468",25.8,26%,56:44:00,87.4,77.3,93.3,92.8,65.5,89.7,43.6634,-79.396
19,National University of Singapore,,"32,337",19.8,25%,51:49:00,87.1,76.4,93.0,90.2,87.0,94.0,1.2966,103.7764
20,Cornell University,United States,"24,027",10.3,26%,51:49:00,85.9,80.2,86.1,97.3,40.4,76.9,42.4534,-76.4735
21,"University of California, Los Angeles",United States,"42,434",9.7,16%,56:44:00,85.8,80.4,88.9,95.4,58.8,65.0,34.0699,-118.4438
22,UCL,United Kingdom,"36,790",10.3,60%,59:41:00,85.7,74.5,85.4,97.9,44.5,96.7,51.5246,-0.134
23,University of Michigan-Ann Arbor,United States,"45,912",8.2,17%,50:50:00,82.9,79.3,84.6,93.6,48.7,59.2,42.2771,-83.7382
24,New York University,United States,"36,337",9.8,42%,57:43:00,82.7,74.2,84.0,95.0,44.6,74.7,40.7295,-73.9965
25,Duke University,United States,"16,091",4.2,24%,52:48:00,82.6,78.1,76.2,95.7,99.6,68.0,36.0014,-78.9382
26,Northwestern University,United States,"19,175",13.2,20%,51:49:00,82.1,71.7,80.7,97.5,85.0,67.0,42.0565,-87.6753
26,University of Washington,United States,"47,727",10.8,18%,55:45:00,82.1,71.6,82.8,98.9,53.9,63.0,47.6546,-122.3075
28,Carnegie Mellon University,United States,"14,305",12.9,47%,44:56:00,81.1,65.4,81.8,98.7,55.2,80.1,40.4432,-79.9428
29,University of Edinburgh,United Kingdom,"32,845",11.8,47%,62:38:00,79.8,66.9,74.5,97.1,40.9,95.6,55.9445,-3.1892
30,Technical University of Munich,,"33,960",40.6,36%,37 : 63,79.3,69.8,82.2,84.5,100.0,77.7,48.149,11.5674
31,University of Hong Kong,,"18,087",18.2,43%,54:46:00,78.5,65.6,74.1,92.4,60.6,98.7,22.2831,114.1366
32,"University of California, San Diego",United States,"37,030",11.3,28%,48:52:00,78.1,60.2,77.2,98.2,93.0,67.8,32.8801,-117.234
33,LMU Munich,,"35,003",34.2,19%,61:39:00,77.7,67.3,78.3,87.4,100.0,70.5,48.1507,11.5805
34,University of Melbourne,Australia,"49,588",23.8,47%,58:42:00,77.6,67.1,75.9,85.8,78.1,93.6,-37.7983,144.961
35,King’s College London,United Kingdom,"28,965",11.8,52%,63:37:00,77.1,58.0,72.9,98.2,45.6,96.1,51.5115,-0.116
36,"Nanyang Technological University, Singapore",Singapore,"24,651",15.1,25%,48:52:00,77,60.9,77.9,87.2,84.5,94.5,1.3483,103.6831
37,London School of Economics and Political Science,United Kingdom,"11,120",11.9,73%,55:45:00,76.5,59.2,74.3,95.1,37.8,92.8,51.5144,-0.1165
38,Georgia Institute of Technology,United States,"28,826",24.7,40%,33 : 67,76,60.2,75.9,91.4,64.9,81.2,33.7756,-84.3963
39,The University of Tokyo,Japan,"26,112",10.5,15%,,75.9,88.1,91.4,55.5,86.7,43.3,35.7127,139.762
40,University of British Columbia,Canada,"56,452",18.9,34%,55:45:00,75.7,62.9,73.1,88.8,47.9,94.8,49.2606,-123.246
41,École Polytechnique Fédérale de Lausanne,Switzerland,"11,641",12.3,62%,30 : 70,75.4,65.6,70.7,84.5,71.7,98.0,46.5191,6.5668
42,KU Leuven,,"47,663",36.5,18%,51:49:00,74.6,59.7,74.9,86.7,99.2,76.8,50.8781,4.6997
43,Universität Heidelberg,,"19,347",13.5,21%,55:45:00,74.1,67.2,61.5,96.0,55.7,71.2,49.4113,8.7062
44,Monash University,Australia,"58,725",42.5,41%,57:43:00,73.6,56.9,68.7,90.4,78.4,91.0,-37.9142,145.1347
45,Chinese University of Hong Kong,,"18,468",19.0,21%,,73.2,59.1,61.1,95.7,60.9,92.5,22.4196,114.2068
46,McGill University,,"32,309",12.5,30%,60:40:00,73,62.0,72.4,82.5,43.5,91.0,45.5048,-73.5772
47,Paris Sciences et Lettres – PSL Research University Paris,France,"16,218",15.0,22%,51:49:00,72.9,68.2,73.5,75.5,78.8,76.3,48.8546,2.3376
48,University of Illinois at Urbana-Champaign,United States,"48,674",17.4,22%,48:52:00,72.7,67.1,78.9,78.1,50.1,56.2,40.102,-88.2272
49,Karolinska Institute,Sweden,"8,021",9.9,27%,70:30:00,72.4,51.1,68.8,94.0,66.4,87.3,59.3481,18.0237
50,University of Texas at Austin,United States,"49,171",17.4,10%,53:47:00,72.3,66.2,73.1,87.5,51.3,40.1,30.2849,-97.7341
51,Fudan University,China,"36,318",11.9,9%,52:48:00,72,71.8,75.8,74.5,77.3,45.2,31.2974,121.5036
52,Shanghai Jiao Tong University,China,"37,478",11.5,8%,42:58:00,71.2,75.3,82.9,59.9,100.0,43.7,31.0252,121.4338
53,The University of Queensland,,"41,372",34.2,41%,55:45:00,71.1,55.9,66.5,84.3,82.0,93.2,-27.4975,153.0137
54,University of Manchester,,"37,035",14.2,44%,55:45:00,70.9,54.5,63.7,91.3,45.3,92.7,53.4668,-2.2339
54,The University of Sydney,Australia,"45,853",19.0,45%,58:42:00,70.9,53.1,65.8,88.5,73.2,90.6,-33.8886,151.1873
56,Seoul National University,South Korea,"26,209",15.1,10%,,70.8,75.2,76.2,67.6,96.6,35.9,37.4594,126.9511
57,Washington University in St Louis,United States,"14,420",7.8,24%,53:47:00,70.6,60.3,56.8,98.2,47.5,64.0,38.6488,-90.3108
58,The Hong Kong University of Science and Technology,,"9,864",21.0,32%,,70.5,51.4,63.4,87.7,95.0,97.7,22.3375,114.2634
59,Wageningen University & Research,Netherlands,"15,404",18.6,27%,55:45:00,70.3,50.4,60.2,93.2,100.0,88.8,,
60,University of Amsterdam,Netherlands,"29,157",14.5,32%,59:41:00,69.6,48.0,64.1,93.3,44.4,91.9,52.3558,4.9557
61,Brown University,United States,"10,037",10.1,21%,,69.3,64.5,58.0,89.5,39.0,63.3,41.8268,-71.4025
62,Australian National University,Australia,"16,758",14.6,51%,52:48:00,69,51.3,69.2,81.8,45.6,96.0,-35.2813,149.1183
63,"University of California, Davis",United States,"37,639",13.1,18%,60:40:00,68.5,59.7,66.3,80.9,52.4,68.7,38.5382,-121.7617
64,"University of California, Santa Barbara",United States,"25,860",28.5,20%,54:46:00,68.4,44.6,61.5,96.2,80.1,76.0,34.414,-119.8489
65,University of Southern California,United States,"40,549",12.6,22%,49:51:00,68.3,58.9,58.6,90.4,43.8,63.7,34.0224,-118.2851
66,Utrecht University,Netherlands,"32,532",17.1,13%,62:38:00,68.2,44.3,66.0,91.2,72.7,78.8,52.0852,5.1757
67,Zhejiang University,,"46,124",12.0,16%,,68.1,67.3,74.8,62.8,100.0,55.1,30.3087,120.0865
68,Kyoto University,Japan,"22,269",9.2,12%,25 : 75,68,77.5,79.1,52.3,88.6,40.5,35.0262,135.7808
69,University of North Carolina at Chapel Hill,United States,"31,080",7.9,8%,59:41:00,67.8,58.9,59.7,93.3,46.0,41.7,35.9049,-79.0469
70,Delft University of Technology,Netherlands,"20,299",16.1,31%,31 : 69,67.7,58.8,76.4,59.1,93.4,94.2,52.0022,4.3736
71,Boston University,United States,"27,243",10.8,31%,59:41:00,67.5,55.9,56.1,92.9,41.1,65.9,42.3505,-71.1054
71,UNSW Sydney,,"45,133",36.3,40%,47:53:00,67.5,51.1,59.0,85.9,63.5,95.1,-33.9173,151.2313
73,Charité - Universitätsmedizin Berlin,Germany,"8,429",18.0,21%,64:36:00,67.2,48.5,52.2,98.8,87.1,69.3,52.5265,13.3766
74,University of Science and Technology of China,,"18,573",8.1,6%,,67.1,65.0,64.9,78.8,69.4,36.9,31.822,117.2806
75,University of Groningen,,"30,009",24.4,28%,52:48:00,66.6,45.4,57.6,90.4,75.8,89.8,53.2193,6.5628
76,University of Bristol,,"25,680",14.6,31%,56:44:00,66.5,43.8,53.4,98.6,43.5,89.4,51.4585,-2.6022
77,Leiden University,,"33,648",19.3,20%,60:40:00,66.4,43.2,64.4,86.6,68.4,85.4,52.157,4.4855
78,Yonsei University (Seoul campus),,"19,481",14.7,17%,50:50:00,66.3,67.0,68.9,63.9,94.8,52.8,37.5664,126.9387
79,Hong Kong Polytechnic University,,"19,046",28.9,30%,51:49:00,65.8,46.6,57.0,86.7,56.0,97.6,22.3046,114.1796
80,Erasmus University Rotterdam,,"31,668",33.9,22%,53:47:00,65.7,38.6,57.1,95.6,64.4,89.7,51.9172,4.5263
81,University of Wisconsin-Madison,United States,"40,701",10.0,14%,,65.5,59.7,62.9,78.7,48.4,51.8,43.0766,-89.4125
82,Emory University,United States,"13,190",4.2,20%,60:40:00,65.3,54.8,46.0,98.0,48.6,59.8,33.7971,-84.3222
82,University of Glasgow,,"28,540",13.5,41%,59:41:00,65.3,43.3,50.8,96.5,41.9,93.8,55.8724,-4.29
82,University of Zurich,Switzerland,"25,003",13.7,22%,56:44:00,65.3,51.5,50.7,87.5,57.6,93.0,47.3746,8.5487
85,McMaster University,,"26,403",29.0,20%,56:44:00,65.1,42.7,51.1,94.6,89.9,84.7,43.2609,-79.9192
86,Humboldt University of Berlin,Germany,"34,399",53.2,17%,,64.9,55.2,64.3,75.6,42.8,70.5,52.5179,13.3937
86,University of Tübingen,Germany,"20,620",27.5,13%,59:41:00,64.9,51.1,58.2,84.5,79.9,64.1,48.5362,9.0367
88,University of Adelaide,,"23,102",32.8,32%,49:51:00,64.7,42.7,51.8,92.2,65.3,93.6,,
89,University of Bonn,Germany,"27,210",47.5,17%,56:44:00,64.6,51.6,56.1,86.0,55.0,68.7,50.7268,7.0865
90,Sorbonne University,France,"41,443",13.9,21%,59:41:00,64.5,58.7,58.3,76.6,40.0,72.3,,
91,Free University of Berlin,Germany,"26,497",41.9,23%,62:38:00,64.2,54.2,62.4,74.8,41.7,76.4,52.4543,13.2935
91,Korea Advanced Institute of Science and Technology (KAIST),South Korea,"9,946",10.7,9%,0.929861111,64.2,64.5,66.0,65.7,100.0,38.2,36.3721,127.3604
93,Université Paris-Saclay,France,"44,443",14.9,19%,49:51:00,63.9,56.7,55.2,79.1,54.6,69.7,48.7099,2.1667
94,University of Bern,Switzerland,"11,728",17.2,17%,58:42:00,63.7,46.0,46.5,90.7,86.3,88.2,46.9502,7.4369
95,"University of California, Irvine",United States,"36,655",16.9,28%,52:48:00,63.6,43.5,51.6,93.6,59.4,73.2,33.6424,-117.8417
95,Institut Polytechnique de Paris,France,"5,999",6.7,41%,24 : 76,63.6,58.5,58.8,64.8,72.7,95.6,48.7126,2.2108
95,Nanjing University,China,"36,426",16.5,8%,54:46:00,63.6,58.4,58.2,74.3,87.3,55.2,32.0568,118.779
98,Vanderbilt University,United States,"12,696",3.8,15%,55:45:00,63.5,49.5,47.5,96.5,66.7,50.6,36.1447,-86.8027
99,City University of Hong Kong,,"9,099",12.1,62%,54:46:00,63.4,47.2,53.0,79.9,76.6,99.6,22.337,114.1727
99,RWTH Aachen University,Germany,"39,738",50.0,28%,33 : 67,63.4,56.8,64.5,66.1,93.8,65.1,50.7779,6.0775
101,University of Basel,Switzerland,"8,632",10.9,30%,57:43:00,63,47.0,44.1,86.5,99.2,96.8,47.5585,7.5839
101,King Abdulaziz University,,"31,545",7.8,22%,54:46:00,63,51.7,36.7,91.9,74.2,93.6,,
101,University of Minnesota,United States,"61,009",12.0,10%,54:46:00,63,55.1,56.9,81.2,77.8,41.7,44.974,-93.2277
104,"University of Maryland, College Park",United States,"33,775",16.5,11%,49:51:00,62.9,48.1,57.7,89.7,40.0,42.6,38.9869,-76.9426
104,University of Warwick,,"23,230",13.1,44%,50:50:00,62.9,44.8,49.6,88.1,42.7,94.9,52.3793,-1.5615
106,Michigan State University,United States,"45,465",16.0,13%,52:48:00,62.8,56.2,55.6,78.8,39.9,61.9,42.7251,-84.4791
107,Ghent University,Belgium,"39,437",35.6,12%,57:43:00,62.7,48.6,60.1,77.8,80.0,63.9,51.0467,3.7274
108,University of Birmingham,United Kingdom,"31,820",15.0,34%,58:42:00,62.6,40.5,46.2,95.2,42.3,92.2,52.4508,-1.9305
108,University of Southampton,United Kingdom,"21,175",13.7,39%,53:47:00,62.6,41.4,47.5,92.3,44.1,94.6,50.9357,-1.3966
110,University of Helsinki,Finland,"23,059",15.8,5%,67:33:00,62.5,45.9,58.5,86.6,39.1,57.0,60.1695,24.9505
111,University of Montreal,,"38,189",20.8,22%,,62.3,50.9,53.2,75.8,76.5,85.5,45.5056,-73.6138
112,Ohio State University (Main campus),United States,"55,814",11.8,13%,51:49:00,62.2,53.0,51.2,83.4,55.3,60.3,40.0067,-83.0305
113,University of Freiburg,Germany,"20,253",37.2,17%,53:47:00,61.9,47.8,52.8,80.8,96.2,67.3,47.9935,7.8459
114,University of Copenhagen,Denmark,"31,519",4.2,16%,62:38:00,61.7,45.1,47.5,87.2,55.0,84.7,55.6802,12.5724
114,Université Paris Cité,,"62,747",17.0,19%,65:35:00,61.7,51.5,44.8,89.3,37.3,68.3,48.8211,2.3762
114,University of Sheffield,,"27,465",14.5,41%,53:47:00,61.7,43.6,46.4,89.5,47.4,88.5,53.3814,-1.4884
117,Aarhus University,Denmark,"26,475",13.5,10%,55:45:00,61.2,40.6,60.0,77.6,74.1,77.9,56.1681,10.203
118,University of Alberta,Canada,"32,338",21.6,28%,,61.1,48.8,52.7,72.9,82.7,89.2,53.5232,-113.5263
119,University of Göttingen,Germany,"30,221",26.0,14%,52:48:00,61,46.3,53.8,83.9,40.1,63.0,51.5415,9.9376
119,Lund University,Sweden,"28,545",11.5,18%,55:45:00,61,40.5,55.5,81.0,79.5,78.5,55.7119,13.2035
121,Vrije Universiteit Amsterdam,Netherlands,"29,796",19.8,16%,56:44:00,60.9,38.4,52.2,87.5,59.1,79.4,52.3338,4.8657
122,Lancaster University,United Kingdom,"14,380",12.8,39%,51:49:00,60.8,38.7,40.0,96.9,38.3,94.9,54.0104,-2.7877
123,Dartmouth College,United States,"6,440",7.8,15%,49:51:00,60.7,59.8,40.4,88.2,40.0,42.0,43.7044,-72.2887
124,Queen Mary University of London,United Kingdom,"20,505",13.1,46%,55:45:00,60.4,34.3,41.3,97.7,44.0,97.1,51.5241,-0.0404
124,University of Vienna,Austria,"35,929",42.9,29%,66:34:00,60.4,49.4,59.3,65.1,44.8,95.8,48.2132,16.3601
126,University of Oslo,Norway,"21,548",13.3,15%,66:34:00,60.2,40.1,48.5,89.0,44.5,77.0,59.9405,10.7215
127,Purdue University West Lafayette,United States,"44,551",16.9,20%,44:56:00,60.1,55.9,64.2,56.9,67.8,71.1,40.4237,-86.9212
128,University of Hamburg,Germany,"30,676",61.5,12%,58:42:00,59.8,46.5,54.4,75.4,96.1,60.4,53.5662,9.9843
128,University of Leeds,United Kingdom,"33,990",14.6,36%,60:40:00,59.8,46.0,47.8,79.3,40.5,91.8,53.8067,-1.555
130,University of Nottingham,United Kingdom,"32,875",15.1,31%,54:46:00,59.6,41.8,44.1,86.6,41.7,90.4,52.9388,-1.1981
131,University of Antwerp,Belgium,"15,857",32.2,17%,56:44:00,59.4,36.4,46.2,90.4,83.5,71.8,51.2228,4.4102
131,The University of Western Australia,Australia,"18,405",21.3,28%,49:51:00,59.4,34.9,48.1,85.6,69.2,94.4,-31.9789,115.8181
133,University of Technology Sydney,,"27,481",35.1,31%,50:50:00,59.3,36.9,42.1,90.5,49.7,96.0,-33.8837,151.2006
134,Case Western Reserve University,United States,"10,934",8.2,20%,51:49:00,59,48.4,40.6,90.7,43.4,52.9,41.5043,-81.6084
135,University of Lausanne,Switzerland,"13,401",10.2,23%,,58.7,35.8,47.6,83.0,72.3,92.3,46.5211,6.5802
136,Georgetown University,United States,"16,074",8.0,19%,54:46:00,58.6,55.5,35.0,88.0,54.0,49.1,38.9076,-77.0723
137,University of Exeter,United Kingdom,"24,165",15.9,29%,53:47:00,58.5,32.4,41.3,94.8,39.2,92.7,50.7371,-3.5351
137,University of Ottawa,,"36,670",26.0,24%,58:42:00,58.5,41.7,45.4,82.6,51.0,84.1,45.4231,-75.6831
139,University of Auckland,New Zealand,"33,093",22.1,32%,56:44:00,58.4,36.8,44.3,85.4,56.4,94.3,,
139,Newcastle University,,"25,590",15.1,29%,52:48:00,58.4,33.3,40.0,96.0,41.8,87.8,54.9792,-1.6147
139,Radboud University Nijmegen,,"21,979",17.6,13%,56:44:00,58.4,34.9,51.6,85.5,48.0,74.7,51.822,5.8638
139,University of Würzburg,Germany,"23,754",40.7,10%,58:42:00,58.4,40.7,45.2,87.8,79.4,57.3,49.7882,9.9353
139,University of York,United Kingdom,"17,665",14.4,28%,56:44:00,58.4,39.3,44.0,85.9,38.4,88.7,53.9461,-1.0518
144,University of Pittsburgh-Pittsburgh campus,United States,"26,575",5.5,11%,55:45:00,58.3,46.2,42.9,90.6,44.2,43.4,40.444,-79.9605
145,Maastricht University,Netherlands,"19,909",18.6,56%,60:40:00,58.2,38.4,49.6,75.5,73.2,98.1,50.847,5.688
146,University of Cologne,Germany,"33,341",30.4,16%,,58,44.5,46.5,80.0,77.3,64.4,50.9283,6.9294
147,Rice University,United States,"7,068",9.2,28%,43:57:00,57.9,46.5,39.7,84.4,44.5,75.3,29.7174,-95.4018
148,University of Colorado Boulder,United States,"34,928",16.0,8%,45:55:00,57.8,45.6,46.3,85.5,44.6,45.6,40.0073,-105.266
148,Ulm University,Germany,"10,271",26.2,13%,51:49:00,57.8,41.6,41.2,89.3,77.6,56.1,48.4234,9.9552
148,Uppsala University,Sweden,"25,548",15.3,17%,62:38:00,57.8,37.6,55.7,75.2,71.5,72.6,59.8509,17.63
151,University of Florida,United States,"46,807",16.1,8%,56:44:00,57.7,55.0,58.7,64.2,51.4,41.4,29.6465,-82.3533
151,Penn State (Main campus),United States,"46,863",14.0,16%,47:53:00,57.7,47.8,53.8,75.2,41.6,48.3,40.7982,-77.8599
151,Tufts University,United States,"11,399",10.0,16%,56:44:00,57.7,47.1,36.7,92.2,43.4,51.4,42.4085,-71.1183
154,University of Rochester,United States,"10,364",7.7,36%,50:50:00,57.6,42.0,40.5,87.0,49.3,73.8,43.1306,-77.626
155,KTH Royal Institute of Technology,Sweden,"13,329",16.4,20%,34 : 66,57.5,43.5,53.8,68.4,68.1,81.1,59.3499,18.0703
156,Arizona State University (Tempe),,"50,027",19.6,17%,45:55:00,57.4,44.8,47.9,79.6,40.2,62.5,33.4232,-111.9265
156,Technical University of Berlin,Germany,"20,243",48.1,27%,35 : 65,57.4,48.8,55.7,62.0,92.6,67.8,52.5125,13.3269
156,TU Dresden,Germany,"30,382",30.8,16%,45:55:00,57.4,48.8,50.7,69.1,92.4,60.5,51.0286,13.7314
156,University of Virginia (Main campus),United States,"25,810",9.0,13%,53:47:00,57.4,48.1,39.8,86.6,45.8,52.5,38.0336,-78.508
160,University of Cape Town,,"21,069",12.8,15%,54:46:00,57.2,33.9,43.8,88.7,53.3,78.8,-33.9577,18.4612
161,University of Bologna,,"69,831",24.4,12%,56:44:00,57,52.1,40.8,80.2,46.4,51.6,44.4969,11.3524
161,Trinity College Dublin,,"17,764",21.0,28%,60:40:00,57,36.0,47.3,79.4,47.1,93.7,53.3438,-6.2546
163,University of Leicester,United Kingdom,"14,650",14.1,34%,54:46:00,56.9,31.4,32.9,98.7,41.9,92.5,52.6211,-1.1246
163,Pohang University of Science and Technology (POSTECH),,"3,260",10.0,3%,,56.9,54.7,51.4,67.7,96.2,31.8,36.0139,129.3232
166,Southern University of Science and Technology (SUSTech),,"5,137",8.8,1%,,56.8,29.8,42.9,95.5,77.9,59.0,22.594,113.9989
166,Technical University of Denmark,Denmark,"9,599",6.9,26%,32 : 68,56.8,40.4,44.9,73.2,86.0,94.0,55.7856,12.5214
168,Medical University of Graz,Austria,"3,722",14.1,27%,53:47:00,56.6,29.4,34.4,96.8,98.1,79.0,47.0802,15.4696
168,"Northeastern University, US",United States,"21,211",14.6,36%,48:52:00,56.6,39.9,30.2,96.2,40.1,76.3,42.3399,-71.0899
170,Indiana University,United States,"66,637",12.6,13%,53:47:00,56.5,45.5,39.4,85.5,53.6,54.3,39.1682,-86.523
170,Université Catholique de Louvain,Belgium,"24,523",36.0,20%,54:46:00,56.5,39.9,50.4,72.8,57.7,82.3,50.6697,4.6159
170,Sungkyunkwan University (SKKU),,"23,399",19.4,18%,,56.5,52.8,54.0,59.4,98.3,56.4,37.5882,126.9936
173,Wuhan University,China,"55,412",15.2,6%,,56.4,43.5,40.5,89.2,69.4,35.3,30.536,114.3643
174,Ulsan National Institute of Science and Technology (UNIST),,"3,896",13.6,9%,27 : 73,56.3,41.3,42.0,85.9,89.9,43.7,35.5734,129.1896
175,Macquarie University,Australia,"30,561",69.0,27%,52:48:00,56.2,38.7,44.6,76.1,64.9,89.8,-33.7738,151.1126
176,Huazhong University of Science and Technology,China,"57,167",16.2,4%,,56.1,42.2,42.6,88.8,83.2,25.5,30.513,114.4203
176,University of Liverpool,,"26,350",14.2,36%,55:45:00,56.1,33.2,37.7,89.4,39.6,94.1,53.4048,-2.9653
176,Stockholm University,Sweden,"30,365",20.7,7%,,56.1,29.7,50.4,87.1,38.3,66.3,59.3652,18.055
179,University of Mannheim,Germany,"7,684",58.2,13%,,56,40.0,48.2,79.0,61.0,57.4,49.4837,8.4622
180,University of Arizona,United States,"39,797",17.0,9%,54:46:00,55.9,45.8,47.0,78.7,52.1,41.3,32.2319,-110.9501
181,Texas A&M University,United States,"62,931",21.3,8%,47:53:00,55.8,50.2,54.8,63.2,45.1,56.0,,
182,University of Barcelona,Spain,"45,004",15.8,11%,63:37:00,55.7,33.1,43.4,89.9,50.2,59.9,41.3867,2.1639
183,Autonomous University of Barcelona,Spain,"31,933",12.7,16%,60:40:00,55.6,35.1,38.8,91.1,43.0,67.1,41.5021,2.1039
183,Scuola Normale Superiore di Pisa,Italy,629,7.6,13%,28 : 72,55.6,56.7,36.5,74.8,38.2,56.4,43.7196,10.4003
185,University of Münster,Germany,"28,014",25.4,7%,,55.5,43.4,43.9,81.4,48.9,49.2,51.9636,7.6133
186,Pompeu Fabra University,Spain,"11,965",22.4,13%,60:40:00,55.4,32.6,39.4,91.5,46.2,68.9,41.379,2.1798
187,Cardiff University,,"27,105",14.3,28%,59:41:00,55.2,31.1,38.9,88.5,41.5,88.3,51.4866,-3.1789
187,National Taiwan University (NTU),,"25,215",11.4,11%,42:58:00,55.2,50.2,55.5,60.1,75.1,47.2,25.0173,121.5398
189,Friedrich Schiller University Jena,Germany,"16,446",20.6,14%,,55,42.4,39.9,81.3,49.7,62.8,50.9294,11.5897
189,Karlsruhe Institute of Technology,Germany,"22,673",21.6,20%,29 : 71,55,46.7,54.2,57.8,89.7,68.6,49.0119,8.417
191,University of Massachusetts,United States,"63,338",13.2,14%,49:51:00,54.9,41.2,33.5,87.8,51.7,65.0,42.3868,-72.5301
192,University of Aberdeen,United Kingdom,"13,205",16.2,44%,58:42:00,54.8,30.7,34.1,89.8,47.5,95.9,57.1648,-2.1015
192,"University of California, Santa Cruz",United States,"19,266",22.6,14%,47:53:00,54.8,32.6,33.3,95.9,46.2,67.9,36.9905,-122.0584
194,Medical University of Vienna,Austria,"7,274",8.4,33%,50:50:00,54.6,35.0,27.6,94.0,61.2,81.7,48.2196,16.3475
194,University of Miami,United States,"17,009",10.8,16%,53:47:00,54.6,48.4,33.5,81.0,48.3,60.2,25.7174,-80.2781
196,University of Erlangen-Nuremberg,Germany,"30,303",43.4,13%,51:49:00,54.5,44.6,47.5,68.8,90.7,53.5,49.5979,11.0045
196,Sichuan University,China,"49,543",15.8,6%,,54.5,57.1,58.6,48.6,93.4,38.7,30.664,104.071
198,Durham University,United Kingdom,"18,425",14.1,35%,54:46:00,54.4,40.0,44.6,70.0,39.4,94.3,54.765,-1.5782
198,Queen’s University Belfast,,"19,060",15.8,39%,57:43:00,54.4,31.1,37.9,84.4,41.6,97.4,54.5844,-5.934
198,University of Reading,United Kingdom,"15,720",16.4,32%,56:44:00,54.4,36.5,39.6,78.5,42.2,93.3,51.4403,-0.9421
201–250,Aalto University,Finland,"13,306",19.7,21%,38 : 62,51.2–54.3,38.3,40.4,67.5,53.2,81.9,60.1867,24.8283
201–250,University of Bergen,Norway,"15,202",12.8,10%,60:40:00,51.2–54.3,30.2,32.7,85.7,41.7,76.4,60.3879,5.3218
201–250,Bielefeld University,Germany,"24,875",66.6,7%,58:42:00,51.2–54.3,33.1,42.4,84.2,42.9,48.5,52.0367,8.4952
201–250,University of Calgary,Canada,"33,560",18.7,21%,54:46:00,51.2–54.3,36.8,40.2,75.9,61.6,79.9,51.0784,-114.1347
201–250,Curtin University,,"29,999",20.8,31%,52:48:00,51.2–54.3,26.5,33.5,83.0,48.5,95.2,-32.0055,115.892
201–250,University of Dundee,United Kingdom,"13,630",18.3,27%,64:36:00,51.2–54.3,25.8,30.5,90.3,49.5,85.4,56.4582,-2.9821
201–250,University of East Anglia,,"15,940",13.3,25%,58:42:00,51.2–54.3,27.0,29.7,95.0,37.7,86.4,52.6221,1.2411
201–250,Eindhoven University of Technology,Netherlands,"10,240",21.0,24%,,51.2–54.3,45.5,49.8,55.5,99.2,86.4,51.4486,5.4907
201–250,University of Geneva,Switzerland,"19,078",8.7,40%,62:38:00,51.2–54.3,34.7,35.4,81.8,48.2,98.6,46.1994,6.1451
201–250,George Washington University,United States,"22,298",12.9,15%,62:38:00,51.2–54.3,47.0,32.8,83.2,38.7,56.9,38.8997,-77.0486
201–250,University of Gothenburg,Sweden,"20,891",10.7,12%,,51.2–54.3,29.3,43.6,87.9,47.1,65.1,57.6984,11.9716
201–250,University of Hohenheim,Germany,"8,714",39.7,14%,58:42:00,51.2–54.3,33.6,32.2,95.2,49.6,55.8,48.7112,9.2124
201–250,Humanitas University,,"1,823",19.0,18%,59:41:00,51.2–54.3,28.3,28.8,99.7,39.4,62.9,45.3697,9.1712
201–250,King Fahd University of Petroleum and Minerals,Saudi Arabia,"7,268",8.6,10%,0.151388889,51.2–54.3,31.4,35.9,80.3,91.8,76.7,26.3071,50.1459
201–250,University of Konstanz,Germany,"5,758",24.2,12%,60:40:00,51.2–54.3,42.0,46.4,62.9,62.6,67.9,47.6899,9.1879
201–250,Korea University,,"22,507",15.8,27%,,51.2–54.3,46.8,48.7,61.5,95.3,55.8,37.5894,127.0325
201–250,Université Libre de Bruxelles,Belgium,"28,290",49.3,31%,57:43:00,51.2–54.3,32.6,44.1,77.3,44.8,88.9,50.8132,4.3822
201–250,University of Luxembourg,Luxembourg,"5,185",19.3,51%,53:47:00,51.2–54.3,38.2,39.8,64.5,51.2,99.4,49.5046,5.9484
201–250,University of Macau,,"10,460",15.4,39%,55:45:00,51.2–54.3,31.6,36.0,78.5,44.2,99.3,22.13,113.5458
201–250,Macau University of Science and Technology,,"11,993",38.1,91%,57:43:00,51.2–54.3,35.4,30.7,79.2,50.1,99.7,22.1526,113.5677
201–250,Medical University of Innsbruck,Austria,"3,244",12.9,43%,54:46:00,51.2–54.3,29.9,30.2,88.8,95.3,88.4,47.2597,11.387
201–250,University of Newcastle,Australia,"24,363",29.5,18%,57:43:00,51.2–54.3,30.0,35.8,79.3,61.9,84.3,-32.8928,151.7042
201–250,University of Notre Dame,United States,"12,401",10.9,13%,46:54:00,51.2–54.3,51.0,40.5,67.7,39.7,59.3,41.7051,-86.2355
201–250,University of Padua,Italy,"48,524",29.3,8%,55:45:00,51.2–54.3,47.2,36.5,80.9,46.4,49.3,45.4067,11.8772
201–250,University of Potsdam,Germany,"14,993",39.6,14%,57:43:00,51.2–54.3,39.2,44.6,70.4,60.2,59.6,52.401,13.0119
201–250,Qatar University,Qatar,"9,084",8.8,35%,77:23:00,51.2–54.3,27.0,38.7,79.6,61.4,98.9,25.3793,51.4879
201–250,Queensland University of Technology,,"35,278",37.9,17%,53:47:00,51.2–54.3,29.2,39.7,86.0,50.1,83.9,-27.4774,153.0282
201–250,RCSI University of Medicine and Health Sciences,,"2,563",24.2,70%,,51.2–54.3,31.4,37.3,76.9,50.7,94.7,53.3391,-6.2629
201–250,Rutgers University – New Brunswick,United States,"46,158",10.9,17%,53:47:00,51.2–54.3,43.5,43.6,73.0,43.1,53.9,40.5008,-74.4474
201–250,"St George’s, University of London",United Kingdom,"3,490",13.2,20%,64:36:00,51.2–54.3,20.4,28.3,99.9,40.5,74.9,51.427,-0.1739
201–250,Sant’Anna School of Advanced Studies – Pisa,,"1,100",14.0,19%,41:59:00,51.2–54.3,43.3,40.2,69.4,81.0,56.7,43.721,10.4028
201–250,University of São Paulo,Brazil,"82,010",15.9,4%,47:53:00,51.2–54.3,54.5,61.5,43.3,43.0,37.2,-23.5614,-46.7308
201–250,Sapienza University of Rome,Italy,"72,604",28.2,10%,60:40:00,51.2–54.3,52.4,44.9,67.7,53.0,43.5,41.9038,12.5144
201–250,Semmelweis University,,"9,860",12.2,34%,69:31:00,51.2–54.3,44.7,18.0,87.9,43.3,77.1,,
201–250,University of South Florida,United States,"39,907",18.6,13%,,51.2–54.3,31.1,36.9,85.1,85.0,56.2,28.0587,-82.4139
201–250,University of St Andrews,United Kingdom,"9,770",12.3,47%,59:41:00,51.2–54.3,40.0,41.4,67.8,38.9,94.9,56.3417,-2.7943
201–250,University of Surrey,United Kingdom,"14,960",16.9,36%,53:47:00,51.2–54.3,31.3,33.9,79.5,45.8,94.8,51.2431,-0.5895
201–250,University of Sussex,United Kingdom,"17,790",17.4,37%,55:45:00,51.2–54.3,28.0,34.2,89.0,39.0,93.1,50.8677,-0.0875
201–250,Università della Svizzera italiana,Switzerland,"3,266",12.5,66%,47:53:00,51.2–54.3,28.0,23.3,91.4,55.7,99.5,46.0107,8.9582
201–250,University of Tartu,,"9,235",12.0,13%,68:32:00,51.2–54.3,26.8,33.1,92.4,45.6,65.4,,
201–250,Tel Aviv University,Israel,"23,834",23.0,7%,57:43:00,51.2–54.3,39.4,51.2,72.0,43.8,56.0,32.1133,34.8044
201–250,Tohoku University,Japan,"17,812",12.4,14%,28 : 72,51.2–54.3,59.1,62.3,36.8,94.5,51.1,38.2538,140.8741
201–250,University College Dublin,Ireland,"23,361",21.3,31%,,51.2–54.3,32.6,40.3,73.9,46.9,94.2,53.3065,-6.2187
201–250,Vita-Salute San Raffaele University,Italy,"3,560",15.1,5%,61:39:00,51.2–54.3,37.6,27.8,99.7,38.2,45.2,,
201–250,Vrije Universiteit Brussel,Belgium,"14,284",33.6,23%,57:43:00,51.2–54.3,36.6,43.6,67.4,60.1,77.3,,
201–250,University of Waterloo,Canada,"34,306",23.2,23%,48:52:00,51.2–54.3,36.8,46.4,71.0,47.3,87.5,43.4723,-80.5449
201–250,Western University,,"29,747",29.5,22%,56:44:00,51.2–54.3,40.7,42.1,67.9,79.9,85.6,43.0096,-81.2737
201–250,Western Sydney University,Australia,"36,033",40.3,22%,58:42:00,51.2–54.3,25.8,31.7,87.6,44.1,87.9,,
201–250,University of Wollongong,Australia,"17,440",29.1,27%,54:46:00,51.2–54.3,31.4,38.2,74.8,57.2,94.0,-34.4053,150.8778
251–300,Aalborg University,Denmark,"16,818",14.7,14%,,48.9–51.1,29.5,43.3,73.2,51.5,76.4,57.014,9.9846
251–300,Auckland University of Technology,,"18,837",17.3,49%,59:41:00,48.9–51.1,20.8,21.3,97.4,39.4,96.4,-36.8536,174.7665
251–300,Australian Catholic University,Australia,"23,728",39.1,15%,75:25:00,48.9–51.1,18.3,25.9,98.3,38.4,79.9,-37.8073,144.9781
251–300,University of Bath,United Kingdom,"14,955",15.4,34%,46:54:00,48.9–51.1,32.2,33.8,73.8,39.9,93.4,51.3782,-2.3264
251–300,Beijing Normal University,China,"24,416",14.3,10%,,48.9–51.1,50.7,43.8,59.5,64.3,41.4,39.962,116.3663
251–300,Bond University,Australia,"3,214",10.9,39%,54:46:00,48.9–51.1,21.6,21.8,99.9,38.3,81.8,-28.0731,153.4166
251–300,Boston College,United States,"12,755",14.5,12%,54:46:00,48.9–51.1,48.6,31.5,74.9,37.4,48.5,42.3355,-71.1685
251–300,Bournemouth University,United Kingdom,"13,825",18.6,21%,53:47:00,48.9–51.1,32.6,20.7,88.4,37.5,84.0,50.7435,-1.8983
251–300,Brighton and Sussex Medical School,United Kingdom,"1,015",20.3,17%,60:40:00,48.9–51.1,15.7,25.4,99.8,36.9,81.1,50.8642,-0.0857
251–300,"University of California, Riverside",United States,"24,515",18.6,14%,53:47:00,48.9–51.1,33.0,32.7,81.4,41.7,65.3,33.9737,-117.3281
251–300,University of Canberra,Australia,"10,785",35.5,26%,,48.9–51.1,20.0,32.0,92.6,43.0,88.1,-35.2381,149.0838
251–300,Chalmers University of Technology,Sweden,"9,513",13.8,19%,32 : 68,48.9–51.1,34.9,44.5,64.4,66.0,77.4,57.6898,11.9742
251–300,"China Medical University, Taiwan",Taiwan,"7,284",15.5,9%,56:44:00,48.9–51.1,24.1,32.0,92.8,93.1,47.6,24.1561,120.6804
251–300,Copenhagen Business School,Denmark,"16,547",27.7,24%,48:52:00,48.9–51.1,21.5,31.0,90.9,43.9,93.6,55.6816,12.5297
251–300,Deakin University,Australia,"43,080",33.9,25%,58:42:00,48.9–51.1,25.0,33.0,83.2,44.6,88.7,-37.846,145.1106
251–300,University of Duisburg-Essen,Germany,"41,618",43.7,19%,49:51:00,48.9–51.1,34.0,35.5,79.9,64.5,60.9,51.4278,6.7996
251–300,Heinrich Heine University Düsseldorf,Germany,"29,365",32.8,12%,58:42:00,48.9–51.1,34.7,32.3,80.1,44.1,59.3,51.1913,6.7941
251–300,École des Ponts ParisTech,France,"1,959",10.0,37%,32 : 68,48.9–51.1,34.4,29.4,79.5,50.1,83.6,,
251–300,Goethe University Frankfurt,Germany,"30,082",12.7,14%,58:42:00,48.9–51.1,33.7,32.9,76.4,44.8,65.6,50.1271,8.6678
251–300,Griffith University,,"35,900",32.9,17%,59:41:00,48.9–51.1,27.1,35.8,76.4,52.8,83.2,-27.5538,153.0579
251–300,University of Hawai’i at Mānoa,United States,"14,628",10.7,11%,56:44:00,48.9–51.1,39.8,41.7,66.0,40.4,66.9,21.2998,-157.8148
251–300,Hebrew University of Jerusalem,Israel,"16,175",11.3,5%,57:43:00,48.9–51.1,42.1,41.8,65.3,42.8,59.5,31.7946,35.2414
251–300,University of Illinois Chicago,United States,"28,724",11.3,19%,54:46:00,48.9–51.1,43.0,32.4,74.6,45.4,53.1,41.8686,-87.6484
251–300,Indian Institute of Science,India,"3,990",8.8,1%,27 : 73,48.9–51.1,60.5,56.9,33.1,80.1,28.0,13.0144,77.5677
251–300,Johannes Gutenberg University of Mainz,Germany,"30,856",25.5,12%,59:41:00,48.9–51.1,36.7,28.8,80.5,57.6,58.5,49.9926,8.2416
251–300,University of Kiel,Germany,"27,911",22.7,9%,53:47:00,48.9–51.1,31.5,32.7,84.5,36.9,57.1,54.3435,10.1149
251–300,King Saud University,Saudi Arabia,"33,931",10.6,14%,44:56:00,48.9–51.1,27.0,32.9,76.3,86.3,85.4,24.7222,46.6259
251–300,Kyung Hee University,,"20,504",17.7,27%,55:45:00,48.9–51.1,37.4,41.8,62.9,89.6,67.8,37.5966,127.0518
251–300,La Trobe University,,"21,663",27.4,33%,63:37:00,48.9–51.1,25.9,32.9,83.2,51.8,88.4,-37.7207,145.0472
251–300,Université Laval,Canada,"28,611",16.9,15%,58:42:00,48.9–51.1,40.1,35.8,67.8,68.7,72.4,46.7817,-71.2747
251–300,Linköping University,Sweden,"15,026",14.4,15%,52:48:00,48.9–51.1,23.5,39.8,78.0,61.8,70.8,58.3978,15.576
251–300,University of Navarra,Spain,"11,466",14.7,27%,54:46:00,48.9–51.1,30.7,30.3,84.7,66.2,72.5,,
251–300,Oregon Health and Science University,United States,"3,035",1.0,3%,67:33:00,48.9–51.1,36.4,19.8,99.4,52.0,29.4,,
251–300,Osaka University,Japan,"22,485",10.5,10%,33 : 67,48.9–51.1,54.3,60.9,31.8,96.4,42.2,34.822,135.5245
251–300,University of Pavia,Italy,"20,027",34.9,10%,57:43:00,48.9–51.1,38.6,33.7,75.0,46.5,47.2,45.1867,9.1571
251–300,Queen’s University,,"26,556",26.2,17%,59:41:00,48.9–51.1,39.9,38.0,60.9,72.0,72.7,44.2253,-76.4951
251–300,Ruhr University Bochum,Germany,"38,441",48.5,15%,50:50:00,48.9–51.1,40.4,47.2,57.6,52.3,54.1,51.4469,7.2617
251–300,Sejong University,South Korea,"12,356",20.8,13%,48:52:00,48.9–51.1,27.3,29.3,93.8,55.6,58.8,37.5518,127.0736
251–300,University of Sharjah,United Arab Emirates,"12,933",19.2,55%,67:33:00,48.9–51.1,20.5,21.3,96.8,41.4,99.3,25.2868,55.4783
251–300,Simon Fraser University,,"26,981",27.5,31%,54:46:00,48.9–51.1,27.8,36.8,76.3,52.0,92.0,49.2781,-122.9199
251–300,University of Southern Denmark,Denmark,"18,471",10.2,14%,53:47:00,48.9–51.1,24.7,32.4,85.3,72.3,78.9,55.369,10.4282
251–300,Stellenbosch University,,"24,907",25.9,8%,56:44:00,48.9–51.1,30.5,36.9,82.2,71.0,54.0,-33.9328,18.8644
251–300,Sun Yat-sen University,China,"57,951",15.1,5%,49:51:00,48.9–51.1,44.9,37.4,74.8,59.3,31.3,23.0965,113.2989
251–300,Swansea University,United Kingdom,"17,490",15.4,22%,47:53:00,48.9–51.1,24.9,28.2,91.5,39.3,83.6,51.6092,-3.98
251–300,Tilburg University,,"11,876",29.9,20%,51:49:00,48.9–51.1,34.3,46.6,61.7,50.6,84.5,51.5639,5.0434
251–300,Tongji University,China,"30,153",10.8,12%,46:54:00,48.9–51.1,43.4,52.3,46.1,97.8,53.1,31.2627,121.4599
251–300,University of Twente,Netherlands,"9,816",14.7,37%,37 : 63,48.9–51.1,34.3,46.4,57.2,80.5,94.5,52.2397,6.8498
251–300,United Arab Emirates University,,"7,121",10.9,17%,80:20:00,48.9–51.1,24.7,29.8,82.3,72.5,88.8,24.2006,55.676
251–300,University of Utah,United States,"30,967",13.6,8%,48:52:00,48.9–51.1,39.9,34.9,81.7,57.5,33.9,40.7649,-111.8421
251–300,Virginia Polytechnic Institute and State University,,"36,512",18.5,14%,43:57:00,48.9–51.1,39.3,36.2,73.7,47.4,56.8,37.2284,-80.4234
251–300,University of the Witwatersrand,,"26,871",23.6,7%,56:44:00,48.9–51.1,31.5,44.3,67.9,100.0,73.1,-26.1929,28.0305
301–350,Abu Dhabi University,United Arab Emirates,"3,926",18.1,60%,51:49:00,47.0–48.7,32.3,15.4,83.1,36.9,98.5,24.3653,54.563
301–350,Aix-Marseille University,France,"70,054",17.4,13%,60:40:00,47.0–48.7,40.5,24.9,72.3,41.5,63.2,43.2922,5.3591
301–350,Alfaisal University,,"2,851",10.2,32%,59:41:00,47.0–48.7,20.2,22.1,91.6,43.4,96.7,24.6646,46.677
301–350,Anglia Ruskin University (ARU),United Kingdom,"20,285",27.8,46%,64:36:00,47.0–48.7,18.2,16.3,99.0,37.2,91.1,52.2033,0.1345
301–350,Autonomous University of Madrid,Spain,"29,327",13.2,12%,61:39:00,47.0–48.7,31.3,31.2,80.8,40.0,51.2,40.5467,-3.6944
301–350,University of Bordeaux,,"53,755",22.4,13%,59:41:00,47.0–48.7,31.6,27.8,79.5,39.5,59.9,44.8245,-0.6059
301–350,Brandeis University,United States,"5,427",13.1,28%,59:41:00,47.0–48.7,28.5,23.1,90.3,37.3,55.5,42.3654,-71.2586
301–350,Universiti Brunei Darussalam,Brunei Darussalam,"3,641",10.8,14%,66:34:00,47.0–48.7,26.0,22.6,83.2,40.1,85.2,4.9727,114.894
301–350,University at Buffalo,United States,"27,393",18.0,15%,45:55:00,47.0–48.7,38.7,33.7,67.7,47.1,63.7,43.0008,-78.789
301–350,"University of California, Merced",United States,"9,185",20.1,10%,52:48:00,47.0–48.7,22.9,23.5,96.0,42.2,47.3,37.3647,-120.4241
301–350,University of Colorado Denver/Anschutz Medical Campus,United States,"17,224",3.8,8%,57:43:00,47.0–48.7,30.1,20.3,97.0,42.9,31.5,39.7454,-104.8379
301–350,Dalhousie University,,"16,901",14.8,28%,55:45:00,47.0–48.7,28.1,30.9,74.3,45.0,89.0,44.6356,-63.5952
301–350,Drexel University,United States,"19,304",12.5,14%,51:49:00,47.0–48.7,40.8,26.0,76.4,48.8,50.1,39.9566,-75.1899
301–350,École Normale Supérieure de Lyon,France,"2,171",8.6,11%,47:53:00,47.0–48.7,46.9,46.2,47.4,56.6,62.1,45.7333,4.8334
301–350,University of Essex,United Kingdom,"14,335",15.3,40%,54:46:00,47.0–48.7,31.0,32.4,71.0,37.9,96.4,51.8777,0.9472
301–350,Flinders University,Australia,"17,027",27.9,36%,65:35:00,47.0–48.7,27.3,33.1,75.8,43.0,89.8,-35.0253,138.57
301–350,Florida State University,United States,"39,380",24.0,7%,57:43:00,47.0–48.7,40.2,37.3,67.5,40.1,47.8,30.4419,-84.2985
301–350,University of Galway,Ireland,"15,109",26.1,20%,60:40:00,47.0–48.7,29.7,32.7,71.2,45.7,82.8,53.2792,-9.0617
301–350,George Mason University,United States,"32,157",18.1,12%,53:47:00,47.0–48.7,30.7,26.8,84.0,37.8,50.0,38.8315,-77.3117
301–350,Hasselt University,Belgium,"5,683",31.1,14%,49:51:00,47.0–48.7,33.4,39.5,63.3,57.3,70.2,50.9335,5.342
301–350,University of Iowa,United States,"29,257",11.1,8%,54:46:00,47.0–48.7,42.5,31.6,70.7,51.0,46.2,41.6627,-91.555
301–350,Lappeenranta-Lahti University of Technology LUT,Finland,"4,609",30.3,12%,33 : 67,47.0–48.7,27.8,32.7,77.2,52.1,59.8,61.065,28.0943
301–350,University of Milan,Italy,"47,512",21.2,7%,60:40:00,47.0–48.7,32.6,30.4,82.5,40.5,43.5,45.4603,9.1941
301–350,University of Milan-Bicocca,Italy,"29,057",29.2,5%,62:38:00,47.0–48.7,24.9,25.9,93.6,40.8,43.0,45.5183,9.2138
301–350,Montpellier University,France,"40,179",20.1,15%,54:46:00,47.0–48.7,35.2,33.6,72.1,39.9,62.2,43.6158,3.8721
301–350,Nagoya University,Japan,"15,224",12.8,12%,30 : 70,47.0–48.7,48.4,54.1,39.7,99.2,35.8,35.1539,136.9682
301–350,Nankai University,China,"31,322",11.3,5%,,47.0–48.7,39.7,24.9,79.4,46.2,40.7,39.1039,117.1742
301–350,University of Otago,New Zealand,"18,508",19.7,19%,60:40:00,47.0–48.7,32.4,34.5,70.2,38.8,88.0,-45.8647,170.5144
301–350,University of Oulu,,"10,134",19.8,7%,54:46:00,47.0–48.7,28.4,35.8,75.2,46.9,57.5,65.0593,25.4663
301–350,Politecnico di Milano,,"37,532",25.4,18%,,47.0–48.7,39.0,45.3,56.4,74.6,62.0,,
301–350,Reykjavík University,Iceland,"2,757",22.9,8%,47:53:00,47.0–48.7,15.5,21.5,99.9,38.1,71.4,64.1238,-21.9269
301–350,RMIT University,Australia,"32,692",23.6,34%,48:52:00,47.0–48.7,29.4,32.7,71.8,47.6,93.6,-37.8083,144.9639
301–350,University of St Gallen,Switzerland,"8,065",12.2,34%,35 : 65,47.0–48.7,28.2,20.4,80.0,47.4,95.9,47.4322,9.3756
301–350,Saint Louis University,United States,"10,798",7.4,7%,60:40:00,47.0–48.7,39.6,15.8,89.4,39.8,34.7,38.6348,-90.2336
301–350,University of South Australia,,"23,490",32.9,21%,58:42:00,47.0–48.7,23.0,36.1,70.4,79.5,87.5,,
301–350,University of Southern Queensland,Australia,"12,150",26.0,18%,62:38:00,47.0–48.7,24.6,24.3,85.5,41.5,79.8,-27.6045,151.9302
301–350,Stony Brook University,United States,"25,411",10.6,22%,52:48:00,47.0–48.7,33.8,26.8,76.1,38.1,69.5,40.9081,-73.1204
301–350,University of Stuttgart,Germany,"16,054",26.5,19%,34 : 66,47.0–48.7,44.8,48.6,47.5,88.0,53.5,48.7815,9.1724
301–350,Swinburne University of Technology,Australia,"15,327",25.6,25%,38 : 62,47.0–48.7,25.2,31.1,81.8,45.2,81.5,-37.8222,145.039
301–350,Taipei Medical University,,"5,946",9.1,10%,58:42:00,47.0–48.7,44.4,32.2,63.1,93.1,45.8,25.0253,121.5614
301–350,Tampere University,Finland,"15,855",20.6,6%,54:46:00,47.0–48.7,26.6,35.9,76.9,56.1,51.1,61.4941,23.7792
301–350,University of Tasmania,Australia,"18,264",22.9,36%,60:40:00,47.0–48.7,27.1,34.8,71.5,48.1,91.1,-42.9041,147.3248
301–350,Technical University of Darmstadt,Germany,"15,526",37.1,18%,34 : 66,47.0–48.7,43.3,48.2,43.8,80.7,59.6,49.8749,8.6564
301–350,Temple University,United States,"35,641",12.5,8%,54:46:00,47.0–48.7,37.4,23.1,83.5,40.2,38.6,39.9812,-75.1554
301–350,The University of Tennessee-Knoxville,United States,"27,308",16.7,4%,,47.0–48.7,35.6,28.4,79.0,45.1,46.7,35.9544,-83.9295
301–350,Tokyo Institute of Technology,Japan,"9,878",9.5,17%,0.725,47.0–48.7,49.7,58.2,31.0,80.0,50.0,35.6046,139.6839
301–350,University College Cork,Ireland,"17,925",20.8,20%,59:41:00,47.0–48.7,24.2,28.8,83.7,47.2,84.3,51.8935,-8.4921
301–350,University of Victoria,Canada,"20,936",24.6,21%,55:45:00,47.0–48.7,24.7,33.7,75.5,45.7,86.8,48.4631,-123.3122
351–400,American University of Beirut,Lebanon,"9,267",8.7,22%,51:49:00,45.0–46.9,24.7,14.8,89.6,43.0,78.7,33.9008,35.4807
351–400,"Asia University, Taiwan",Taiwan,"11,421",30.3,7%,62:38:00,45.0–46.9,18.2,36.5,76.1,97.2,52.5,24.0461,120.6874
351–400,Ateneo de Manila University,Philippines,"13,159",10.0,4%,51:49:00,45.0–46.9,32.4,9.5,97.0,37.6,31.8,14.6399,121.0785
351–400,"Birkbeck, University of London",United Kingdom,"8,060",16.6,40%,56:44:00,45.0–46.9,30.4,33.3,66.8,37.2,90.7,51.5219,-0.1303
351–400,University of Bremen,Germany,"12,635",20.1,14%,53:47:00,45.0–46.9,36.4,38.6,59.0,48.3,59.7,53.1065,8.8553
351–400,University of Brescia,Italy,"15,133",24.6,7%,46:54:00,45.0–46.9,26.4,18.8,95.2,40.2,42.5,45.5378,10.2173
351–400,University of Cape Coast,,"28,451",35.5,0%,33 : 67,45.0–46.9,17.4,20.7,99.1,63.4,44.7,5.1155,-1.2909
351–400,Catholic University of Portugal,Portugal,"11,213",22.2,21%,63:37:00,45.0–46.9,20.2,19.2,97.8,38.8,62.8,38.7493,-9.166
351–400,Central South University,China,"56,344",20.4,4%,,45.0–46.9,31.8,41.2,65.7,93.4,26.3,28.1644,112.9325
351–400,Charles Darwin University,Australia,"7,246",34.5,30%,69:31:00,45.0–46.9,22.7,33.2,72.4,45.9,79.8,-12.372,130.8689
351–400,"City, University of London",United Kingdom,"15,460",18.2,51%,57:43:00,45.0–46.9,25.6,29.3,69.0,38.3,95.0,51.528,-0.1025
351–400,University of Delaware,United States,"21,808",16.3,12%,57:43:00,45.0–46.9,28.8,39.0,64.9,91.4,51.5,39.678,-75.7506
351–400,East China Normal University,China,"28,055",14.7,11%,64:36:00,45.0–46.9,37.5,32.6,62.0,54.4,54.7,31.2277,121.4068
351–400,Edith Cowan University,,"18,759",30.4,28%,60:40:00,45.0–46.9,20.1,25.3,80.4,40.7,87.4,-31.7525,115.7728
351–400,Golestan University of Medical Sciences,Iran,"3,721",11.5,11%,60:40:00,45.0–46.9,33.7,8.9,100.0,37.0,33.3,36.8375,54.3553
351–400,University of Greifswald,Germany,"10,291",20.6,8%,58:42:00,45.0–46.9,31.9,26.9,77.6,42.0,56.7,54.095,13.3746
351–400,University of Hail,Saudi Arabia,"19,366",11.2,10%,63:37:00,45.0–46.9,18.0,9.2,98.7,42.8,82.3,,
351–400,Harbin Institute of Technology,China,"30,542",10.5,6%,,45.0–46.9,44.2,46.9,49.0,99.6,27.6,45.747,126.6334
351–400,Howard University,United States,"8,782",8.2,6%,70:30:00,45.0–46.9,45.7,17.6,79.2,36.9,34.3,38.9227,-77.0194
351–400,Imam Mohammad Ibn Saud Islamic University,Saudi Arabia,"43,110",10.8,3%,39 : 61,45.0–46.9,29.6,17.7,89.6,40.6,65.1,24.8114,46.7013
351–400,IMT Atlantique,France,"1,436",7.7,33%,25 : 75,45.0–46.9,37.3,35.8,50.1,90.6,77.2,47.2825,-1.52
351–400,James Cook University,Australia,"12,825",20.1,32%,62:38:00,45.0–46.9,23.3,28.2,78.0,43.4,93.8,-19.3259,146.7567
351–400,JSS Academy of Higher Education and Research,India,"7,891",9.5,7%,54:46:00,45.0–46.9,34.4,9.4,99.3,38.4,35.2,12.3439,76.654
351–400,University of Kent,United Kingdom,"16,705",17.0,29%,54:46:00,45.0–46.9,27.9,29.5,67.6,37.4,92.0,51.2967,1.063
351–400,Khalifa University,,"3,029",8.8,22%,58:42:00,45.0–46.9,31.2,37.1,56.2,94.2,92.8,24.4474,54.3949
351–400,Kurdistan University of Medical Sciences,Iran,"3,181",10.5,2%,49:51:00,45.0–46.9,36.1,9.8,98.4,37.6,23.7,35.2842,47.0015
351–400,Leuphana University of Lüneburg,Germany,"7,839",26.1,7%,62:38:00,45.0–46.9,25.2,22.1,90.0,38.9,54.3,53.229,10.4014
351–400,University of Liège,Belgium,"21,910",26.8,21%,58:42:00,45.0–46.9,26.8,38.4,62.2,85.7,72.4,50.6408,5.5761
351–400,Loughborough University,United Kingdom,"15,815",13.8,29%,41:59:00,45.0–46.9,32.2,32.6,61.0,40.3,88.6,52.765,-1.2321
351–400,University of Malaya,Malaysia,"18,320",9.8,18%,58:42:00,45.0–46.9,37.4,32.6,61.2,42.7,82.7,3.1219,101.657
351–400,University of Manitoba,Canada,"29,561",29.4,20%,54:46:00,45.0–46.9,32.7,31.2,75.0,38.2,56.6,49.8075,-97.1366
351–400,Mazandaran University of Medical Sciences,Iran,"7,845",15.1,1%,57:43:00,45.0–46.9,41.8,11.1,93.3,42.1,21.4,36.7332,53.0933
351–400,University of Naples Federico II,Italy,"53,319",20.2,2%,55:45:00,45.0–46.9,34.0,28.3,77.5,42.6,32.3,40.8454,14.2578
351–400,University of New Mexico (Main campus),United States,"18,046",16.9,5%,56:44:00,45.0–46.9,34.7,29.3,74.5,39.0,37.6,35.0843,-106.6198
351–400,North Carolina State University,United States,"31,540",16.6,14%,48:52:00,45.0–46.9,40.9,38.2,59.7,47.5,54.8,35.7851,-78.6813
351–400,University of Rome II – Tor Vergata,Italy,"24,038",30.3,20%,56:44:00,45.0–46.9,39.7,28.8,63.8,45.8,65.3,41.8536,12.6287
351–400,"Royal Holloway, University of London",United Kingdom,"10,640",15.1,35%,57:43:00,45.0–46.9,28.7,28.4,67.6,39.5,91.6,51.4257,-0.5631
351–400,Royal Veterinary College,United Kingdom,"2,250",10.5,30%,80:20:00,45.0–46.9,24.4,20.1,79.6,46.6,93.4,51.5368,-0.134
351–400,Rush University,United States,"2,757",2.1,1%,76:24:00,45.0–46.9,40.9,15.3,90.1,44.1,22.1,41.8734,-87.669
351–400,Shoolini University of Biotechnology and Management Sciences,India,"2,973",14.3,2%,45:55:00,45.0–46.9,23.2,14.4,98.3,37.9,49.1,30.8644,77.1184
351–400,University of Stirling,United Kingdom,"9,855",16.0,27%,64:36:00,45.0–46.9,22.9,25.9,79.4,37.3,86.1,56.1461,-3.9178
351–400,Swedish University of Agricultural Sciences,Sweden,"4,216",4.6,7%,70:30:00,45.0–46.9,29.9,31.4,71.8,89.2,52.1,59.815,17.6629
351–400,University of Texas at Dallas,United States,"25,464",21.6,20%,43:57:00,45.0–46.9,24.8,27.0,81.3,42.7,56.4,32.9857,-96.7502
351–400,Tulane University,United States,"11,220",7.5,11%,58:42:00,45.0–46.9,41.9,23.0,73.6,38.8,43.8,29.9407,-90.1203
351–400,University of Turku,,"13,012",15.3,5%,64:36:00,45.0–46.9,27.7,32.6,73.9,38.7,53.5,60.4542,22.2848
351–400,University of Vaasa,Finland,"3,873",20.0,4%,53:47:00,45.0–46.9,19.6,25.5,88.0,38.5,66.2,63.1049,21.5933
351–400,Verona University,Italy,"18,621",23.8,4%,64:36:00,45.0–46.9,31.4,26.0,80.0,45.5,42.4,45.4365,11.0032
351–400,Wake Forest University,United States,"8,122",4.0,10%,54:46:00,45.0–46.9,39.4,20.2,81.9,45.7,33.0,36.1355,-80.2793
351–400,Washington State University,United States,"29,463",19.5,7%,54:46:00,45.0–46.9,33.4,32.7,69.6,50.8,50.1,46.7298,-117.1745
351–400,Wroclaw Medical University,Poland,"6,769",9.4,14%,71:29:00,45.0–46.9,39.6,11.7,89.0,38.2,37.5,51.1089,17.0689
401–500,Alagappa University,India,"4,831",15.7,0%,63:37:00,42.1–44.9,34.6,11.0,82.8,37.2,35.1,,
401–500,University of Alaska Fairbanks,United States,"2,910",7.2,6%,53:47:00,42.1–44.9,29.1,24.9,70.0,47.7,60.0,64.8556,-147.8341
401–500,Arak University of Medical Sciences,Iran,"3,500",7.4,1%,56:44:00,42.1–44.9,24.6,8.8,100.0,36.9,17.9,34.0854,49.6411
401–500,Aston University,United Kingdom,"12,015",17.8,25%,48:52:00,42.1–44.9,20.5,24.9,76.8,38.8,92.6,52.4867,-1.8882
401–500,Aswan University,Egypt,"31,877",46.7,2%,55:45:00,42.1–44.9,16.7,11.6,98.5,37.0,47.8,23.9965,32.8599
401–500,Babol University of Medical Sciences,Iran,"4,102",11.8,0%,58:42:00,42.1–44.9,32.3,10.6,97.3,37.3,18.4,36.5312,52.6781
401–500,Babol Noshirvani University of Technology,Iran,"6,180",28.7,0%,33 : 67,42.1–44.9,20.3,20.9,98.4,38.5,22.9,36.5611,52.6806
401–500,Bangor University,United Kingdom,"8,790",15.7,26%,61:39:00,42.1–44.9,28.3,24.7,72.6,37.4,84.3,53.2295,-4.13
401–500,University of Bayreuth,Germany,"9,734",26.6,12%,47:53:00,42.1–44.9,36.4,39.4,55.0,53.3,58.3,49.9262,11.5852
401–500,Brunel University London,United Kingdom,"13,040",17.0,39%,47:53:00,42.1–44.9,24.3,26.4,69.9,37.9,96.9,51.5321,-0.4727
401–500,University of Campinas,Brazil,"31,199",17.8,3%,46:54:00,42.1–44.9,47.9,46.7,38.4,44.4,34.1,-22.8184,-47.0647
401–500,Cankaya University,Turkey,"7,113",25.4,1%,46:54:00,42.1–44.9,15.5,13.2,100.0,37.7,46.7,39.8194,32.5643
401–500,University of Catania,Italy,"26,902",21.2,3%,58:42:00,42.1–44.9,31.2,21.5,79.7,39.4,31.9,37.5036,15.0865
401–500,Claude Bernard University Lyon 1,France,"28,253",13.0,14%,54:46:00,42.1–44.9,36.1,27.2,65.5,41.6,59.0,45.7796,4.8656
401–500,Colorado School of Mines,United States,"6,350",17.6,9%,31 : 69,42.1–44.9,34.0,30.3,63.0,46.2,37.1,39.751,-105.2226
401–500,"Colorado State University, Fort Collins",United States,"29,351",17.7,6%,55:45:00,42.1–44.9,31.7,29.6,72.3,43.0,39.1,40.5729,-105.0848
401–500,Complutense University of Madrid,Spain,"61,128",20.3,12%,62:38:00,42.1–44.9,31.4,34.7,60.5,39.1,44.7,40.4454,-3.7299
401–500,University of Connecticut,United States,"27,752",13.6,12%,52:48:00,42.1–44.9,39.1,29.3,59.8,40.0,54.8,41.8077,-72.254
401–500,University of Crete,Greece,"13,808",27.6,4%,63:37:00,42.1–44.9,20.6,26.0,82.2,51.0,48.4,35.3073,25.0827
401–500,University of Cyprus,,"6,875",20.1,13%,60:40:00,42.1–44.9,26.0,23.1,67.0,55.5,83.4,35.16,33.377
401–500,University of Denver,United States,"10,001",13.0,6%,60:40:00,42.1–44.9,40.1,24.7,69.8,37.9,27.5,39.6766,-104.9619
401–500,Dublin City University,Ireland,"13,956",25.4,17%,59:41:00,42.1–44.9,23.9,33.8,63.2,42.6,82.2,53.3853,-6.2588
401–500,Duy Tan University,Vietnam,"21,670",21.9,0%,62:38:00,42.1–44.9,14.4,12.6,100.0,37.7,48.6,16.0599,108.2097
401–500,Edinburgh Napier University,United Kingdom,"11,535",20.4,35%,53:47:00,42.1–44.9,17.9,17.0,81.3,37.0,87.8,,
401–500,University of Electronic Science and Technology of China,China,"35,232",15.4,3%,30 : 70,42.1–44.9,29.3,31.2,67.1,67.0,32.4,,
401–500,Ferhat Abbas Sétif University 1,Algeria,"34,637",22.7,1%,63:37:00,42.1–44.9,18.2,19.8,94.7,36.9,40.0,36.1961,5.3597
401–500,University of Ferrara,Italy,"20,507",32.6,5%,61:39:00,42.1–44.9,31.4,24.7,70.6,43.0,42.4,44.8334,11.6263
401–500,University of Florence,Italy,"39,407",23.0,9%,56:44:00,42.1–44.9,34.8,32.4,65.6,45.0,44.7,43.7778,11.2594
401–500,Free University of Bozen-Bolzano,Italy,"4,236",12.6,15%,68:32:00,42.1–44.9,23.5,19.4,83.3,38.5,74.2,46.4985,11.3507
401–500,University of Genoa,Italy,"20,447",23.7,8%,57:43:00,42.1–44.9,36.4,28.3,66.5,48.3,43.9,44.4137,8.9289
401–500,Georgia State University,United States,"34,734",17.3,5%,58:42:00,42.1–44.9,34.3,26.9,65.2,38.1,43.4,33.7531,-84.3853
401–500,Université Grenoble Alpes,France,"50,868",18.2,17%,52:48:00,42.1–44.9,37.6,35.0,56.1,40.4,65.5,45.1916,5.7672
401–500,Hanyang University,,"20,079",14.6,20%,,42.1–44.9,41.8,40.8,40.8,89.8,63.7,37.5572,127.0454
401–500,Hunan University,China,"41,580",18.6,2%,47:53:00,42.1–44.9,24.0,26.4,87.6,59.1,25.6,28.1789,112.944
401–500,University of Ibadan,Nigeria,"26,156",17.6,0%,49:51:00,42.1–44.9,30.1,15.7,83.7,37.4,34.5,7.4433,3.9003
401–500,Illinois Institute of Technology,United States,"6,386",11.5,41%,37 : 63,42.1–44.9,43.1,21.8,61.0,39.7,67.3,41.8349,-87.627
401–500,University of Innsbruck,Austria,"13,918",22.0,46%,53:47:00,42.1–44.9,33.9,30.1,55.9,52.5,96.2,47.2634,11.3838
401–500,Institut Agro,France,"2,148",11.5,16%,65:35:00,42.1–44.9,35.4,30.5,59.1,46.7,59.4,,
401–500,University of International Business and Economics,China,"16,061",15.7,15%,69:31:00,42.1–44.9,27.2,15.6,84.0,38.1,54.3,,
401–500,Iowa State University,United States,"28,767",16.7,10%,44:56:00,42.1–44.9,35.5,36.9,56.5,51.0,39.5,42.0267,-93.6465
401–500,Jazan University,Saudi Arabia,"26,568",13.0,3%,64:36:00,42.1–44.9,17.5,8.5,97.0,37.1,74.8,16.9658,42.5418
401–500,Justus Liebig University Giessen,Germany,"28,278",44.6,11%,63:37:00,42.1–44.9,33.1,37.3,60.2,43.7,51.8,50.5805,8.6771
401–500,University of Jyväskylä,Finland,"10,444",14.4,3%,62:38:00,42.1–44.9,28.5,33.3,68.0,38.2,51.2,62.2365,25.7316
401–500,University of Kansas,United States,"24,435",9.9,8%,53:47:00,42.1–44.9,38.1,24.4,67.2,46.3,49.2,38.9543,-95.2558
401–500,University of Klagenfurt,Austria,"3,562",10.0,28%,68:32:00,42.1–44.9,23.5,18.2,74.7,38.5,90.9,46.616,14.2654
401–500,Koç University,Turkey,"5,882",19.7,8%,48:52:00,42.1–44.9,30.7,42.3,56.1,100.0,49.3,41.2054,29.0724
401–500,University of KwaZulu-Natal,,"35,795",30.1,2%,60:40:00,42.1–44.9,30.4,34.4,63.9,38.2,51.5,-29.8674,30.9807
401–500,University of Lagos,Nigeria,"36,237",21.5,0%,48:52:00,42.1–44.9,18.5,14.0,97.7,40.9,34.0,6.5158,3.3898
401–500,Leibniz University Hannover,Germany,"21,677",43.7,18%,42:58:00,42.1–44.9,39.1,39.2,46.2,48.9,54.7,52.3822,9.7178
401–500,Lincoln University,New Zealand,"2,492",13.3,44%,51:49:00,42.1–44.9,29.7,22.6,59.9,51.7,96.4,39.8072,-75.9285
401–500,University of Lincoln,United Kingdom,"14,480",15.7,13%,55:45:00,42.1–44.9,17.8,17.4,85.8,37.5,75.4,39.8072,-75.9285
401–500,Liverpool John Moores University,United Kingdom,"21,725",17.4,16%,54:46:00,42.1–44.9,20.9,19.0,81.2,37.4,77.2,53.4037,-2.9731
401–500,Mahatma Gandhi University,India,"1,855",14.6,2%,61:39:00,42.1–44.9,42.5,31.5,58.1,37.9,21.9,9.6599,76.5309
401–500,University of Marburg,Germany,"23,383",31.2,12%,56:44:00,42.1–44.9,36.0,30.1,64.1,36.9,53.9,50.8102,8.774
401–500,Maynooth University,Ireland,"11,454",28.5,15%,55:45:00,42.1–44.9,21.7,28.9,71.7,39.5,82.5,53.3845,-6.6011
401–500,Middlesex University,United Kingdom,"15,905",18.7,50%,58:42:00,42.1–44.9,21.3,19.6,75.3,37.2,91.0,51.5897,-0.2293
401–500,University of Modena and Reggio Emilia,Italy,"21,409",26.9,5%,53:47:00,42.1–44.9,32.7,23.2,72.1,49.1,37.6,44.6451,10.9281
401–500,Muhimbili University of Health and Allied Sciences,Tanzania,"3,626",11.3,3%,41:59:00,42.1–44.9,17.0,11.0,99.9,39.1,49.2,-6.8079,39.2733
401–500,Murdoch University,Australia,"16,641",36.5,40%,61:39:00,42.1–44.9,21.6,27.8,70.6,46.7,93.2,-32.068,115.8352
401–500,National and Kapodistrian University of Athens,Greece,"66,649",31.0,11%,59:41:00,42.1–44.9,22.1,20.1,82.4,67.9,56.3,37.9682,23.7787
401–500,University of Nebraska-Lincoln,United States,"24,909",16.8,10%,49:51:00,42.1–44.9,34.0,31.0,60.5,39.6,56.1,40.8202,-96.7005
401–500,University of Nebraska Medical Center,United States,"3,181",2.0,9%,69:31:00,42.1–44.9,34.9,12.6,83.2,40.2,46.3,41.2549,-95.9759
401–500,Norwegian University of Science and Technology,Norway,"37,707",15.8,9%,48:52:00,42.1–44.9,30.0,34.7,60.1,42.9,67.5,63.4195,10.402
401–500,Nova Southeastern University,United States,"17,952",16.3,4%,70:30:00,42.1–44.9,39.4,10.6,87.5,36.9,28.9,26.0786,-80.2457
401–500,Örebro University,Sweden,"10,005",15.2,5%,61:39:00,42.1–44.9,17.7,21.8,87.1,37.7,55.1,59.2548,15.2493
401–500,University of Passau,Germany,"9,703",69.2,12%,61:39:00,42.1–44.9,35.6,38.1,54.5,43.0,53.6,48.5678,13.4528
401–500,University of Pisa,Italy,"33,791",21.9,6%,51:49:00,42.1–44.9,28.8,30.2,69.2,41.7,40.6,43.7167,10.3989
401–500,University of Plymouth,United Kingdom,"15,605",17.7,16%,58:42:00,42.1–44.9,22.2,22.7,79.6,37.2,73.0,50.3759,-4.1396
401–500,Pontificia Universidad Católica de Chile,Chile,"31,578",16.0,4%,,42.1–44.9,24.2,31.9,66.2,70.3,56.2,-33.4419,-70.6401
401–500,University of Porto,Portugal,"33,484",16.2,16%,55:45:00,42.1–44.9,26.6,32.3,63.7,41.9,57.9,41.1465,-8.6157
401–500,University of Portsmouth,United Kingdom,"22,490",16.4,29%,47:53:00,42.1–44.9,18.8,19.2,76.3,37.6,91.4,50.7953,-1.0939
401–500,Qazvin University of Medical Sciences,Iran,"2,598",9.2,1%,57:43:00,42.1–44.9,30.6,10.3,99.9,37.0,22.6,36.28,49.9899
401–500,Qom University of Medical Sciences,Iran,"2,272",9.1,4%,57:43:00,42.1–44.9,28.9,9.8,100.0,37.0,19.4,,
401–500,Quaid-i-Azam University,Pakistan,"9,250",16.5,1%,51:49:00,42.1–44.9,26.9,22.9,78.7,38.2,48.6,33.7476,73.1381
401–500,Sabancı University,,"3,819",20.0,10%,38 : 62,42.1–44.9,25.5,37.7,57.0,73.4,59.7,,
401–500,Sharif University of Technology,Iran,"9,219",22.5,2%,25 : 75,42.1–44.9,33.5,36.3,60.4,89.5,31.6,35.7036,51.3517
401–500,Shenzhen University,China,"38,240",14.1,1%,46:54:00,42.1–44.9,23.0,27.9,86.0,50.5,34.5,22.5331,113.9328
401–500,University of Siena,Italy,"12,948",18.7,9%,63:37:00,42.1–44.9,21.5,25.3,79.9,41.7,43.5,43.3191,11.3328
401–500,South China University of Technology,China,"40,082",12.7,5%,39 : 61,42.1–44.9,28.2,35.6,70.7,80.7,34.4,23.1513,113.3447
401–500,Southeast University,China,"37,484",12.3,4%,36 : 64,42.1–44.9,34.8,42.3,47.2,93.7,37.8,31.8861,118.8198
401–500,Southern Medical University,,"20,432",10.7,6%,,42.1–44.9,38.6,37.7,58.0,43.8,25.0,23.1826,113.3342
401–500,SRUC (Scotland’s Rural College),United Kingdom,"1,325",5.3,8%,60:40:00,42.1–44.9,23.6,12.6,92.1,42.5,59.1,,
401–500,University of Strathclyde,United Kingdom,"19,840",17.0,29%,50:50:00,42.1–44.9,32.0,33.9,56.1,47.8,89.7,55.8621,-4.2424
401–500,Sumy State University,Ukraine,"8,703",11.4,21%,44:56:00,42.1–44.9,19.5,12.3,94.5,39.9,57.2,50.8918,34.8432
401–500,Syracuse University,United States,"20,620",14.9,23%,52:48:00,42.1–44.9,34.9,28.0,64.3,37.2,50.7,43.0387,-76.1337
401–500,Universiti Teknologi Petronas,Malaysia,"5,021",13.6,16%,38 : 62,42.1–44.9,26.8,33.8,58.9,77.6,76.7,4.3836,100.9712
401–500,Tianjin University,China,"27,353",8.7,12%,,42.1–44.9,35.3,42.8,51.6,89.9,41.5,39.1081,117.1762
401–500,Ton Duc Thang University,,"27,878",25.3,1%,56:44:00,42.1–44.9,13.5,16.0,99.2,39.8,58.4,10.7327,106.6998
401–500,University of Trento,Italy,"14,219",19.2,8%,52:48:00,42.1–44.9,27.0,32.3,66.5,41.1,56.9,46.0669,11.1231
401–500,The University of Tulsa,United States,"4,407",12.0,10%,48:52:00,42.1–44.9,37.8,17.1,75.6,48.0,36.4,36.1521,-95.9461
401–500,University of Turin,Italy,"58,463",28.4,6%,61:39:00,42.1–44.9,21.5,29.7,77.5,43.9,41.4,45.0697,7.6891
401–500,TU Wien,Austria,"10,327",17.7,31%,31 : 69,42.1–44.9,40.1,37.4,38.1,62.0,87.6,48.1987,16.3685
401–500,Umeå University,Sweden,"18,218",12.6,11%,61:39:00,42.1–44.9,21.9,29.6,78.4,38.5,64.5,63.8202,20.3054
401–500,Urmia University of Medical Sciences,Iran,"4,644",12.0,2%,51:49:00,42.1–44.9,35.0,10.0,90.4,36.9,19.7,37.5389,45.0818
401–500,Universiti Utara Malaysia,Malaysia,"12,457",11.6,30%,79:21:00,42.1–44.9,33.4,25.7,60.2,41.2,74.8,6.4485,100.5097
401–500,Victoria University of Wellington,New Zealand,"17,883",18.8,20%,58:42:00,42.1–44.9,27.8,34.0,53.2,53.7,87.4,-41.2901,174.7679
401–500,University of Waikato,New Zealand,"10,472",17.6,31%,59:41:00,42.1–44.9,21.6,28.1,66.4,40.8,95.4,-37.7866,175.3176
401–500,University of the West of England,United Kingdom,"24,585",15.9,23%,53:47:00,42.1–44.9,18.3,14.6,92.9,37.6,72.9,,
401–500,William & Mary,United States,"8,089",10.9,8%,56:44:00,42.1–44.9,43.7,21.4,64.3,37.3,35.7,,
401–500,Xiamen University,China,"42,760",15.4,2%,,42.1–44.9,30.8,28.5,78.4,53.1,28.3,24.4373,118.0979
401–500,York University,,"44,036",29.1,28%,55:45:00,42.1–44.9,25.1,33.1,67.0,42.1,75.3,43.7735,-79.5019
501–600,Aberystwyth University,United Kingdom,"6,180",16.3,24%,52:48:00,39.3–42.0,22.3,23.4,64.1,39.8,81.1,52.4183,-4.0639
501–600,An-Najah National University,,"23,922",23.9,10%,65:35:00,39.3–42.0,13.3,8.9,98.4,38.1,64.1,32.2276,35.2206
501–600,University of L’Aquila,Italy,"18,491",40.2,4%,56:44:00,39.3–42.0,33.0,24.3,69.2,54.8,34.6,42.3514,13.3973
501–600,Beihang University,China,"31,821",12.9,4%,,39.3–42.0,32.9,39.6,48.4,90.0,27.1,39.9844,116.3446
501–600,Beijing Institute of Technology,China,"35,710",14.2,6%,,39.3–42.0,33.6,36.2,49.9,99.8,25.8,39.9604,116.3124
501–600,Birmingham City University,United Kingdom,"22,935",16.6,26%,62:38:00,39.3–42.0,16.3,10.8,90.3,37.1,72.0,52.4864,-1.9175
501–600,University of Bradford,United Kingdom,"8,400",19.1,30%,57:43:00,39.3–42.0,22.0,22.7,62.5,39.7,84.2,53.7915,-1.7661
501–600,Bucharest University of Economic Studies,Romania,"22,723",16.2,4%,65:35:00,39.3–42.0,17.9,11.1,97.7,37.8,24.6,44.4475,26.0979
501–600,Centrale Nantes,France,"1,730",15.7,43%,24 : 76,39.3–42.0,31.9,28.7,45.3,81.0,86.3,47.2483,-1.5496
501–600,Changsha University of Science and Technology,China,"33,342",15.3,1%,37 : 63,39.3–42.0,15.5,11.8,93.8,54.8,23.5,28.213,112.9163
501–600,Charles University,Czech Republic,"49,787",13.2,22%,62:38:00,39.3–42.0,33.2,31.0,49.7,37.3,64.3,50.0871,14.4235
501–600,University of Côte d’Azur,France,"31,723",20.2,20%,56:44:00,39.3–42.0,24.9,21.1,69.9,37.6,74.0,43.7169,7.268
501–600,Damietta University,Egypt,"30,084",24.7,1%,71:29:00,39.3–42.0,17.0,8.2,99.9,37.5,39.0,,
501–600,Durban University of Technology,South Africa,"27,063",36.5,1%,54:46:00,39.3–42.0,17.6,11.6,90.0,38.5,38.8,-29.8536,31.0061
501–600,Eastern Mediterranean University,Northern Cyprus,"14,375",27.0,76%,43:57:00,39.3–42.0,22.4,14.2,76.6,46.1,89.3,35.1424,33.9116
501–600,École des Mines de Saint-Étienne,France,"1,115",9.9,25%,28 : 72,39.3–42.0,32.3,30.8,51.6,76.1,70.9,45.4225,4.4084
501–600,Federal University of Toulouse Midi-Pyrénées,France,"108,889",19.8,14%,55:45:00,39.3–42.0,26.4,27.5,61.2,39.9,66.0,43.5949,1.4514
501–600,Florida International University,United States,"35,590",23.3,9%,57:43:00,39.3–42.0,32.2,27.4,62.7,37.9,41.7,25.7562,-80.3755
501–600,University of Fribourg,Switzerland,"6,880",15.6,14%,64:36:00,39.3–42.0,29.3,31.3,54.8,49.4,82.5,46.8064,7.152
501–600,"Goldsmiths, University of London",United Kingdom,"9,215",14.9,39%,66:34:00,39.3–42.0,25.5,25.9,63.4,37.0,80.7,51.4743,-0.0354
501–600,Government College University Faisalabad,Pakistan,"21,219",27.3,0%,46:54:00,39.3–42.0,16.8,13.1,88.1,37.0,45.3,31.4161,73.07
501–600,University of Greenwich,United Kingdom,"15,045",20.2,44%,57:43:00,39.3–42.0,18.1,16.8,78.2,37.8,94.6,51.483,-0.0064
501–600,University of Guelph,Canada,"22,763",27.4,10%,59:41:00,39.3–42.0,29.5,33.4,48.7,49.3,60.6,43.5327,-80.2262
501–600,Gwangju Institute of Science and Technology (GIST),South Korea,"1,808",10.0,8%,25 : 75,39.3–42.0,44.5,40.8,31.4,76.8,39.8,35.2276,126.8394
501–600,Harokopio University of Athens,Greece,"3,125",46.6,3%,53:47:00,39.3–42.0,23.2,24.2,76.2,43.9,43.9,37.9612,23.7083
501–600,Heriot-Watt University,United Kingdom,"9,735",17.9,37%,40 : 60,39.3–42.0,31.2,31.1,48.3,43.0,94.0,55.9095,-3.3206
501–600,Hokkaido University,Japan,"18,263",8.4,11%,30 : 70,39.3–42.0,43.1,40.8,32.2,65.4,44.0,43.078,141.34
501–600,Hong Kong Baptist University,Hong Kong,"8,358",12.4,62%,67:33:00,39.3–42.0,26.5,28.2,57.4,40.1,98.0,22.3408,114.1799
501–600,University of Hull,United Kingdom,"12,565",17.2,19%,55:45:00,39.3–42.0,25.3,24.6,62.1,38.2,77.6,53.7731,-0.367
501–600,University of Iceland,Iceland,"10,642",17.9,10%,68:32:00,39.3–42.0,18.7,32.0,66.3,63.1,61.6,64.1405,-21.9495
501–600,Indian Institute of Technology Ropar,India,"2,339",13.6,0%,0.765972222,39.3–42.0,30.1,15.4,78.4,42.7,19.4,30.9686,76.4733
501–600,University of Insubria,Italy,"9,789",27.0,6%,55:45:00,39.3–42.0,18.0,22.6,84.8,38.6,40.3,45.8144,8.8275
501–600,"International Institute of Information Technology, Hyderabad",India,"1,862",18.1,7%,0.888888889,39.3–42.0,18.4,23.1,79.5,68.8,30.2,17.4449,78.3498
501–600,Iran University of Science and Technology,Iran,"15,436",33.9,1%,34 : 66,39.3–42.0,32.6,36.8,54.2,98.4,21.2,35.7422,51.5049
501–600,"Islamic Azad University, Najafabad Branch (IAUN)",Iran,"21,971",17.7,0%,47:53:00,39.3–42.0,21.9,8.5,96.4,37.3,23.5,,
501–600,Constructor University Bremen,,"1,556",21.6,84%,43:57:00,39.3–42.0,34.5,31.4,40.5,56.2,90.2,53.167,8.6516
501–600,Jamia Millia Islamia,India,"10,481",11.2,2%,49:51:00,39.3–42.0,36.6,12.5,75.8,38.2,27.7,28.5616,77.2802
501–600,Jimma University,Ethiopia,"30,473",16.3,0%,30 : 70,39.3–42.0,14.7,9.5,100.0,37.5,39.5,7.682,36.856
501–600,Johannes Kepler University of Linz,Austria,"7,133",22.5,13%,50:50:00,39.3–42.0,32.5,32.9,42.3,73.1,70.4,,
501–600,Jordan University of Science and Technology,Jordan,"25,905",14.9,13%,57:43:00,39.3–42.0,15.7,10.3,92.2,38.2,50.6,32.495,35.9912
501–600,Kafrelsheikh University,Egypt,"62,533",26.1,2%,48:52:00,39.3–42.0,13.6,8.4,96.7,39.2,48.3,31.0972,30.9474
501–600,Kashan University of Medical Sciences and Health Services,Iran,"3,419",12.8,2%,38 : 62,39.3–42.0,32.0,13.4,84.0,37.4,22.9,34.0142,51.4057
501–600,Keele University,United Kingdom,"9,170",15.3,16%,59:41:00,39.3–42.0,21.1,24.8,68.4,37.5,73.1,53.003,-2.2721
501–600,University of Kentucky,United States,"27,216",11.2,4%,57:43:00,39.3–42.0,36.1,27.3,59.2,40.4,39.0,38.0307,-84.504
501–600,Kermanshah University of Medical Sciences,Iran,"5,759",9.6,12%,53:47:00,39.3–42.0,20.8,10.3,95.0,37.3,39.3,34.3443,47.0986
501–600,University of Kragujevac,Serbia,"16,679",15.8,1%,57:43:00,39.3–42.0,21.5,8.3,96.0,39.3,33.3,44.0234,20.9216
501–600,Kyushu University,Japan,"18,568",7.8,14%,29 : 71,39.3–42.0,46.0,42.5,34.8,71.0,43.6,,
501–600,Lebanese American University,Lebanon,"7,057",10.1,19%,52:48:00,39.3–42.0,29.4,11.9,69.5,37.0,86.5,33.893,35.4778
501–600,University of Lille,France,"75,291",29.6,14%,60:40:00,39.3–42.0,30.7,21.5,59.5,42.2,62.5,50.632,3.0753
501–600,University of Lisbon,Portugal,"48,404",18.1,18%,53:47:00,39.3–42.0,26.4,35.7,53.4,43.0,60.4,38.7527,-9.1582
501–600,University of Management and Technology,Pakistan,"22,520",22.2,2%,45:55:00,39.3–42.0,14.8,9.5,99.9,39.5,45.4,31.4517,74.2937
501–600,University of Messina,Italy,"15,290",24.2,3%,63:37:00,39.3–42.0,31.7,23.6,72.1,38.6,32.1,38.1891,15.553
501–600,Middle East Technical University,Turkey,"17,151",22.5,10%,48:52:00,39.3–42.0,37.5,42.4,35.4,99.9,44.6,39.8898,32.7801
501–600,Missouri University of Science and Technology,United States,"7,617",22.3,9%,1.011805556,39.3–42.0,29.0,26.7,61.3,58.7,62.9,37.9537,-91.7756
501–600,University of Mons,Belgium,"7,450",26.9,17%,57:43:00,39.3–42.0,23.1,27.0,60.1,41.3,69.9,50.4517,3.959
501–600,National Tsing Hua University,Taiwan,"13,711",16.3,11%,41:59:00,39.3–42.0,32.6,42.6,47.2,69.2,43.0,24.7961,120.9967
501–600,National Yang Ming Chiao Tung University,Taiwan,"16,425",14.2,11%,36 : 64,39.3–42.0,41.3,46.7,34.9,79.9,41.3,24.7869,120.9975
501–600,University of Neuchâtel,Switzerland,"4,148",11.1,21%,61:39:00,39.3–42.0,26.2,25.2,58.3,39.5,88.7,46.9939,6.9387
501–600,University of Nicosia,,"4,696",11.3,54%,53:47:00,39.3–42.0,19.6,16.6,75.7,37.4,94.8,35.1658,33.3147
501–600,Northumbria University,United Kingdom,"22,500",16.2,22%,54:46:00,39.3–42.0,20.5,22.4,71.5,37.5,81.6,54.9765,-1.6071
501–600,Northwestern Polytechnical University,China,"34,095",13.9,4%,28 : 72,39.3–42.0,30.2,37.7,54.8,69.5,40.1,,
501–600,Nottingham Trent University,United Kingdom,"29,925",15.3,21%,57:43:00,39.3–42.0,19.4,15.0,79.6,37.5,82.2,52.9581,-1.1542
501–600,Open University of Catalonia,Spain,"32,319",100.5,6%,57:43:00,39.3–42.0,20.0,18.9,81.2,37.7,48.1,41.4066,2.1946
501–600,University of Peradeniya,Sri Lanka,"16,123",10.7,1%,59:41:00,39.3–42.0,17.3,8.9,99.2,39.1,40.3,7.2549,80.5974
501–600,Universitat Ramon Llull,Spain,"14,900",22.2,19%,52:48:00,39.3–42.0,19.5,17.0,83.6,40.0,66.5,41.4119,2.1312
501–600,University of Salerno,Italy,"26,289",27.4,3%,54:46:00,39.3–42.0,18.9,23.3,77.4,39.1,35.0,40.7713,14.7907
501–600,University of Saskatchewan,Canada,"17,741",17.6,22%,55:45:00,39.3–42.0,36.7,30.3,48.6,69.7,75.0,52.1334,-106.6314
501–600,University of Sassari,Italy,"15,065",37.9,2%,62:38:00,39.3–42.0,32.1,27.6,62.4,38.4,37.9,40.7249,8.5597
501–600,Saveetha Institute of Medical and Technical Sciences,,"12,394",7.4,1%,38 : 62,39.3–42.0,22.4,8.5,97.1,38.1,35.3,13.0283,80.0158
501–600,Sciences Po,France,"12,872",45.2,37%,61:39:00,39.3–42.0,28.8,25.1,57.9,39.1,82.1,48.8539,2.329
501–600,Shiraz University of Technology,Iran,"1,437",13.8,0%,37 : 63,39.3–42.0,28.4,22.8,78.0,42.1,29.4,29.5816,52.5791
501–600,SOAS University of London,United Kingdom,"4,655",12.8,53%,67:33:00,39.3–42.0,33.9,38.5,42.4,37.0,81.4,51.5224,-0.1293
501–600,University of South Carolina-Columbia,United States,"33,025",15.6,5%,55:45:00,39.3–42.0,35.0,24.0,65.5,37.6,45.9,33.9938,-81.0299
501–600,Southwestern University of Finance and Economics,China,"23,330",16.4,2%,65:35:00,39.3–42.0,20.0,12.8,93.6,39.8,39.7,30.6628,104.0163
501–600,University of Stavanger,Norway,"11,089",11.4,11%,58:42:00,39.3–42.0,20.7,15.6,72.3,41.3,77.0,58.9373,5.6972
501–600,Stevens Institute of Technology,United States,"6,624",18.6,35%,29 : 71,39.3–42.0,22.8,20.5,69.6,37.6,73.5,40.7448,-74.0256
501–600,SUNY University at Albany,United States,"16,090",17.2,8%,55:45:00,39.3–42.0,24.6,25.7,71.4,44.6,50.4,42.685,-73.8248
501–600,University of Tabuk,Saudi Arabia,"29,471",14.4,2%,57:43:00,39.3–42.0,16.1,8.6,87.9,41.7,72.9,28.3941,36.4768
501–600,Technion Israel Institute of Technology,Israel,"15,147",21.0,12%,39 : 61,39.3–42.0,33.7,30.9,51.2,38.6,72.0,32.7768,35.0231
501–600,Tokyo Medical and Dental University (TMDU),Japan,"3,010",4.4,11%,50:50:00,39.3–42.0,45.1,29.7,44.0,74.5,31.7,,
501–600,University of Trieste,Italy,"16,677",24.9,7%,57:43:00,39.3–42.0,28.5,25.5,63.8,39.0,47.5,45.6595,13.7947
501–600,University of Tsukuba,Japan,"15,725",12.7,16%,38 : 62,39.3–42.0,43.9,37.8,38.5,43.7,43.0,36.1116,140.1043
501–600,TU Dortmund University,Germany,"25,046",74.8,10%,47:53:00,39.3–42.0,35.9,43.2,43.7,46.1,44.2,51.4895,7.4147
501–600,University of Tuscia,Italy,"6,272",20.0,4%,54:46:00,39.3–42.0,19.1,20.2,81.6,47.7,39.5,42.4133,12.1142
501–600,University of Udine,Italy,"12,326",18.5,5%,54:46:00,39.3–42.0,26.1,19.6,73.6,39.9,38.2,46.066,13.2326
501–600,UiT The Arctic University of Norway,Norway,"14,377",10.1,10%,58:42:00,39.3–42.0,22.8,20.8,75.3,39.0,68.6,69.6798,18.9712
501–600,University of Valencia,Spain,"50,575",14.3,14%,58:42:00,39.3–42.0,23.0,23.8,71.3,39.0,49.9,39.4791,-0.3588
501–600,University of Vic – Central University of Catalonia,Spain,"6,472",14.0,20%,60:40:00,39.3–42.0,16.1,12.0,91.6,37.9,59.7,41.9338,2.2473
501–600,Victoria University,Australia,"16,106",45.2,25%,55:45:00,39.3–42.0,25.5,26.9,63.6,44.5,79.1,-37.7937,144.8985
501–600,Virginia Commonwealth University,United States,"26,472",10.7,4%,63:37:00,39.3–42.0,28.9,12.3,86.2,42.5,30.7,37.5527,-77.4527
501–600,Wayne State University,United States,"22,941",11.9,5%,59:41:00,39.3–42.0,34.0,18.6,67.2,48.8,35.3,42.3591,-83.0665
501–600,The University of the West Indies,Jamaica,"24,811",17.0,1%,71:29:00,39.3–42.0,17.6,10.8,90.3,38.9,58.1,18.0059,-76.7468
501–600,Xi’an Jiaotong University,China,"44,942",14.1,6%,35 : 65,39.3–42.0,36.4,42.7,47.1,75.0,29.4,34.2508,108.9837
501–600,University of Zambia,Zambia,"16,903",21.2,1%,35 : 65,39.3–42.0,15.7,9.2,96.8,38.4,49.9,-15.3923,28.3285
501–600,Zayed University,United Arab Emirates,"8,593",14.1,2%,88:12:00,39.3–42.0,17.7,16.0,79.1,37.6,74.5,25.0999,55.3866
501–600,Zhejiang Normal University,China,"26,928",11.7,7%,,39.3–42.0,16.7,15.5,87.5,65.4,30.5,29.0792,119.6474
601–800,Abdul Wali Khan University Mardan,Pakistan,"10,314",20.9,0%,32 : 68,34.0–39.2,15.0,12.0,88.0,36.9,46.4,34.1917,72.0347
601–800,Åbo Akademi University,Finland,"5,399",17.6,10%,,34.0–39.2,22.0,31.2,44.4,40.0,65.0,60.451,22.2776
601–800,Addis Ababa University,Ethiopia,"46,881",14.8,0%,29 : 71,34.0–39.2,19.6,12.4,79.5,41.9,46.6,9.0335,38.7637
601–800,Ahvaz Jundishapur University of Medical Sciences (AJUMS),Iran,"8,601",11.6,2%,60:40:00,34.0–39.2,33.5,10.0,65.5,37.5,18.2,,
601–800,Ajou University,South Korea,"7,574",14.2,17%,42:58:00,34.0–39.2,31.1,37.5,41.7,74.3,44.4,37.2831,127.0448
601–800,Amedeo Avogadro University of Eastern Piedmont,Italy,"14,292",37.1,7%,61:39:00,34.0–39.2,13.9,22.2,64.5,37.5,41.6,,
601–800,American University,United States,"12,495",11.6,11%,63:37:00,34.0–39.2,40.7,16.8,55.7,42.5,37.3,38.938,-77.0889
601–800,American University of Sharjah,United Arab Emirates,"4,468",11.9,76%,53:47:00,34.0–39.2,20.9,21.3,45.6,38.9,93.5,25.3116,55.4927
601–800,Amirkabir University of Technology,Iran,"10,673",21.2,2%,35 : 65,34.0–39.2,30.1,31.9,54.9,64.9,31.7,35.7022,51.409
601–800,University of Antofagasta,Chile,"8,083",20.4,2%,56:44:00,34.0–39.2,14.8,9.5,81.0,36.9,52.4,-23.6691,-70.4054
601–800,University of Arkansas,United States,"25,207",19.4,4%,54:46:00,34.0–39.2,29.1,27.6,48.5,39.5,30.6,36.0687,-94.1748
601–800,Auburn University,United States,"27,512",18.2,10%,50:50:00,34.0–39.2,32.4,23.4,45.9,43.8,49.3,32.5981,-85.4943
601–800,Azarbaijan Shahid Madani University,Iran,"7,350",26.2,0%,61:39:00,34.0–39.2,18.1,13.0,83.8,38.4,22.7,37.812,45.9468
601–800,University of Babylon,Iraq,"26,449",12.7,0%,54:46:00,34.0–39.2,18.0,7.8,85.0,37.0,21.6,32.3939,44.3981
601–800,Bahçeşehir University,Turkey,"17,813",47.2,18%,49:51:00,34.0–39.2,19.3,20.9,62.3,51.9,49.5,41.0422,29.0093
601–800,Bahria University,Pakistan,"19,573",22.2,1%,44:56:00,34.0–39.2,13.6,9.1,79.7,37.4,43.7,33.7156,73.0288
601–800,Banaras Hindu University,India,"13,900",8.7,3%,38 : 62,34.0–39.2,38.8,16.9,66.0,37.0,20.1,25.2677,82.9913
601–800,University of Bari Aldo Moro,Italy,"29,905",21.6,2%,62:38:00,34.0–39.2,16.6,22.8,72.5,38.9,33.6,41.1206,16.8685
601–800,Bar-Ilan University,Israel,"17,255",17.3,4%,61:39:00,34.0–39.2,30.5,34.0,42.0,49.4,50.3,32.0692,34.8431
601–800,Baylor University,United States,"19,700",17.7,7%,55:45:00,34.0–39.2,33.7,18.3,52.4,37.4,29.3,31.5501,-97.1135
601–800,Beirut Arab University,Lebanon,"5,698",12.0,18%,45:55:00,34.0–39.2,33.6,16.4,56.1,37.0,83.9,33.8728,35.497
601–800,Ben-Gurion University of the Negev,Israel,"16,468",20.4,2%,52:48:00,34.0–39.2,30.3,31.1,43.4,42.8,37.0,31.2614,34.7996
601–800,Benha University,Egypt,"110,645",32.5,3%,42:58:00,34.0–39.2,16.5,8.6,77.0,37.8,45.1,30.4713,31.1817
601–800,Université Bourgogne Franche-Comté (UBFC),France,"67,049",37.3,11%,56:44:00,34.0–39.2,19.6,18.3,69.7,40.7,55.4,47.2484,5.9912
601–800,Ca’ Foscari University of Venice,Italy,"18,231",38.3,10%,64:36:00,34.0–39.2,34.4,32.3,34.3,44.6,60.8,45.4345,12.3264
601–800,University of Camerino (Unicam),Italy,"8,129",27.9,10%,46:54:00,34.0–39.2,20.9,15.8,61.4,44.7,49.3,,
601–800,University of Canterbury,,"15,245",18.4,22%,51:49:00,34.0–39.2,25.2,27.5,45.3,39.7,92.0,-43.5225,172.5794
601–800,Capital Medical University,China,"15,254",4.9,5%,62:38:00,34.0–39.2,30.4,18.3,65.8,37.3,22.8,39.8652,116.3529
601–800,Carleton University,Canada,"28,760",29.7,22%,49:51:00,34.0–39.2,21.5,30.5,50.4,43.0,72.2,45.3876,-75.696
601–800,University of Central Florida,United States,"62,248",36.1,5%,56:44:00,34.0–39.2,26.1,29.5,60.1,46.0,34.4,28.6024,-81.2001
601–800,Central Queensland University,,"15,453",20.7,26%,58:42:00,34.0–39.2,19.4,19.6,66.5,40.3,61.7,-23.3265,150.5189
601–800,Chongqing University,,"40,696",19.9,3%,,34.0–39.2,27.8,33.2,52.8,85.2,24.8,29.5649,106.4681
601–800,Chung-Ang University,South Korea,"18,101",22.7,22%,,34.0–39.2,37.3,38.3,29.2,78.6,56.1,37.5051,126.9571
601–800,Clark University,United States,"3,273",11.6,25%,59:41:00,34.0–39.2,24.9,20.7,64.9,36.9,58.4,42.252,-71.8245
601–800,University of Coimbra,Portugal,"21,429",18.0,19%,58:42:00,34.0–39.2,25.1,35.2,40.4,49.8,59.5,40.2076,-8.4261
601–800,University of Colombo,Sri Lanka,"31,792",31.9,0%,58:42:00,34.0–39.2,28.9,9.6,74.5,37.0,37.0,,
601–800,COMSATS University Islamabad,Pakistan,"33,465",14.8,2%,42:58:00,34.0–39.2,17.1,14.7,78.2,37.0,46.8,33.6518,73.1566
601–800,Concordia University,Canada,"35,592",33.5,34%,50:50:00,34.0–39.2,22.6,27.4,46.4,39.2,85.6,45.4948,-73.5779
601–800,University of Córdoba,Spain,"16,847",13.5,10%,56:44:00,34.0–39.2,22.7,21.2,56.0,39.4,47.5,-31.4355,-64.1858
601–800,University of Costa Rica,Costa Rica,"31,545",13.4,2%,53:47:00,34.0–39.2,18.2,9.0,71.2,36.9,48.1,9.9502,-84.0407
601–800,Covenant University,,"8,362",15.5,1%,40 : 60,34.0–39.2,22.1,24.8,59.4,44.3,46.0,6.6726,3.1612
601–800,Cyprus University of Technology,Cyprus,"3,280",16.9,14%,56:44:00,34.0–39.2,23.7,16.7,53.9,38.9,78.6,34.6751,33.0442
601–800,Dalian University of Technology,China,"38,465",15.0,3%,,34.0–39.2,28.6,29.6,46.1,73.0,31.9,38.8804,121.529
601–800,Delhi Technological University,India,"11,196",22.3,3%,0.970833333,34.0–39.2,17.8,17.0,80.1,42.5,17.3,28.7495,77.1184
601–800,De Montfort University,United Kingdom,"24,490",20.2,38%,54:46:00,34.0–39.2,17.0,14.8,59.3,37.0,89.6,52.6298,-1.1399
601–800,University of Derby,United Kingdom,"15,525",14.6,18%,59:41:00,34.0–39.2,16.5,12.0,66.5,37.4,70.2,52.9379,-1.4972
601–800,University of Desarrollo,Chile,"15,933",15.9,3%,56:44:00,34.0–39.2,15.0,10.1,73.8,39.6,50.6,-36.8214,-73.0366
601–800,University of Dhaka,Bangladesh,"211,424",16.1,3%,48:52:00,34.0–39.2,15.2,8.6,85.9,37.3,43.1,23.7339,90.3929
601–800,Dow University of Health Sciences,Pakistan,"7,249",6.8,3%,76:24:00,34.0–39.2,20.8,8.2,74.0,37.2,35.8,24.8577,67.0109
601–800,University of Eastern Finland,Finland,"11,898",18.2,5%,66:34:00,34.0–39.2,24.8,29.1,58.3,40.0,50.5,62.8917,27.6354
601–800,Universidade Eduardo Mondlane,Mozambique,"45,256",26.1,0%,39 : 61,34.0–39.2,12.1,8.4,89.4,36.9,48.7,-25.9521,32.6036
601–800,"University of Engineering and Technology, Taxila",Pakistan,"5,290",19.3,2%,0.806944444,34.0–39.2,15.1,12.5,88.9,37.2,42.7,33.7665,72.8232
601–800,ENSTA Bretagne,France,830,8.1,5%,24 : 76,34.0–39.2,26.3,23.3,48.7,64.7,49.5,48.4191,-4.4721
601–800,Eötvös Loránd University,,"30,190",17.5,9%,62:38:00,34.0–39.2,32.9,18.2,49.6,37.2,52.1,47.4906,19.0585
601–800,Fayoum University,Egypt,"44,786",16.8,0%,62:38:00,34.0–39.2,15.3,10.4,79.7,40.2,42.4,29.3198,30.8356
601–800,Universidade Federal do Rio Grande do Sul,Brazil,"39,169",14.1,1%,52:48:00,34.0–39.2,32.1,21.9,50.8,39.8,28.7,-30.034,-51.219
601–800,Universidade Federal de São Paulo (UNIFESP),Brazil,"18,877",10.3,1%,59:41:00,34.0–39.2,29.6,21.4,55.4,37.3,30.5,-23.5916,-46.649
601–800,Federation University Australia,,"11,684",22.2,52%,55:45:00,34.0–39.2,18.6,15.8,70.5,41.1,81.2,-37.6264,143.8911
601–800,Gabriele d‘Annunzio University,Italy,"23,416",32.4,2%,64:36:00,34.0–39.2,15.1,18.9,72.9,37.8,38.4,42.4682,14.212
601–800,University of Georgia,United States,"37,465",13.2,7%,58:42:00,34.0–39.2,39.5,25.8,52.8,39.2,37.6,33.9567,-83.3752
601–800,Glasgow Caledonian University,United Kingdom,"14,270",23.6,19%,57:43:00,34.0–39.2,18.4,13.8,65.4,37.4,69.0,55.8668,-4.25
601–800,University of Granada,Spain,"54,619",14.5,10%,60:40:00,34.0–39.2,23.2,28.8,50.5,37.2,50.2,37.1839,-3.6004
601–800,Graphic Era University,,"7,823",14.3,1%,42:58:00,34.0–39.2,25.0,9.0,83.1,41.6,25.5,30.2686,77.9948
601–800,University of Graz,Austria,"12,531",12.4,17%,66:34:00,34.0–39.2,25.2,19.3,59.3,38.2,81.7,47.0776,15.4495
601–800,Graz University of Technology,Austria,"6,353",8.6,23%,25 : 75,34.0–39.2,32.0,20.3,42.5,63.1,83.6,47.0694,15.4504
601–800,Guangzhou University,China,"36,701",19.4,0%,64:36:00,34.0–39.2,16.1,14.3,76.9,41.5,28.9,,
601–800,Guangzhou Medical University,China,"12,891",1.7,2%,56:44:00,34.0–39.2,22.2,8.3,87.6,38.2,24.2,23.1329,113.2554
601–800,Hacettepe University,Turkey,"38,444",20.1,3%,56:44:00,34.0–39.2,29.0,26.1,51.9,89.1,25.7,,
601–800,University of Haifa,Israel,"17,353",17.7,3%,66:34:00,34.0–39.2,21.5,29.1,66.4,38.1,36.1,32.7614,35.0195
601–800,Hamburg University of Technology,Germany,"4,668",28.9,23%,28 : 72,34.0–39.2,36.1,23.9,42.5,88.1,56.9,53.4612,9.9696
601–800,Hazara University Mansehra,Pakistan,"12,145",26.5,0%,26 : 74,34.0–39.2,17.4,10.1,82.0,37.0,44.3,34.4211,73.2502
601–800,University of Hertfordshire,United Kingdom,"18,780",15.5,38%,54:46:00,34.0–39.2,17.7,13.2,58.1,37.3,86.1,,
601–800,University of Houston,United States,"46,958",27.0,7%,52:48:00,34.0–39.2,34.9,28.0,48.8,42.5,43.2,29.7199,-95.3422
601–800,University of Huddersfield,United Kingdom,"14,410",19.9,26%,58:42:00,34.0–39.2,23.2,23.7,49.8,39.7,82.8,53.6428,-1.7781
601–800,Icesi University,Colombia,"6,279",8.0,2%,53:47:00,34.0–39.2,19.1,9.1,86.0,37.4,37.3,3.3419,-76.5306
601–800,Ilam University of Medical Sciences,Iran,"2,687",13.0,4%,53:47:00,34.0–39.2,26.1,10.7,85.1,38.5,20.8,33.6656,46.3883
601–800,Imam Abdulrahman Bin Faisal University,Saudi Arabia,"22,059",8.7,4%,90:10:00,34.0–39.2,22.1,9.9,64.0,37.5,72.9,26.3928,50.1926
601–800,Indian Institute of Technology Indore,India,"2,001",11.7,0%,0.970833333,34.0–39.2,32.8,23.7,61.8,39.1,24.9,22.5204,75.9207
601–800,Indraprastha Institute of Information Technology Delhi,India,"2,399",23.1,2%,1.011805556,34.0–39.2,21.5,17.5,69.6,78.9,33.8,28.5459,77.2732
601–800,"International Islamic University, Islamabad",Pakistan,"25,221",25.1,7%,53:47:00,34.0–39.2,17.2,10.8,80.7,36.9,52.2,33.6593,73.0238
601–800,Iran University of Medical Sciences,Iran,"8,840",8.3,5%,57:43:00,34.0–39.2,46.0,14.9,56.1,41.7,27.1,,
601–800,Istanbul Technical University,Turkey,"18,562",24.2,15%,37 : 63,34.0–39.2,31.9,35.5,29.1,100.0,42.6,41.1056,29.0253
601–800,Jagiellonian University,Poland,"34,725",9.6,11%,67:33:00,34.0–39.2,31.3,25.3,56.7,37.6,40.9,50.0611,19.9329
601–800,Jamia Hamdard University,India,"9,636",20.0,3%,45:55:00,34.0–39.2,18.9,12.6,73.3,40.5,31.3,28.5155,77.2505
601–800,Jawaharlal Nehru University,India,"8,840",14.2,2%,46:54:00,34.0–39.2,44.1,23.5,38.3,37.9,19.5,28.5398,77.1664
601–800,Jiangsu University,China,"35,687",9.5,6%,42:58:00,34.0–39.2,21.0,12.5,66.5,58.8,44.4,,
601–800,Jinan University,China,"41,858",16.6,27%,56:44:00,34.0–39.2,21.6,20.2,57.1,45.0,52.9,23.1281,113.3477
601–800,University of Johannesburg,,"29,167",25.1,15%,55:45:00,34.0–39.2,24.7,33.4,35.8,45.5,74.9,,
601–800,Jönköping University,Sweden,"6,762",13.0,14%,60:40:00,34.0–39.2,18.6,18.3,58.9,38.1,65.5,,
601–800,The University of Jordan,Jordan,"30,380",13.4,13%,66:34:00,34.0–39.2,24.8,12.4,60.9,40.8,59.9,32.0161,35.8695
601–800,Jouf University,Saudi Arabia,"19,826",9.8,3%,60:40:00,34.0–39.2,27.3,17.7,47.7,38.4,75.0,29.7907,40.045
601–800,University of Kaiserslautern,Germany,"8,572",28.8,22%,35 : 65,34.0–39.2,37.5,26.7,32.2,62.5,54.9,49.4254,7.7553
601–800,Kalasalingam Academy of Research and Education,India,"7,365",8.8,3%,55:45:00,34.0–39.2,22.3,9.3,82.3,39.3,23.3,,
601–800,Kansai Medical University,Japan,"1,086",1.3,2%,52:48:00,34.0–39.2,27.6,8.5,82.6,38.1,18.2,34.8175,135.6452
601–800,University of Kashan,Iran,"8,190",27.2,3%,54:46:00,34.0–39.2,21.4,19.2,76.3,38.4,22.8,34.0136,51.3661
601–800,Universiti Kebangsaan Malaysia,Malaysia,"16,873",10.1,14%,58:42:00,34.0–39.2,37.6,23.9,47.1,40.1,65.7,2.929,101.7801
601–800,KIIT University,,"24,796",12.3,9%,49:51:00,34.0–39.2,30.3,13.6,67.5,69.5,28.0,20.3555,85.8161
601–800,King Saud bin Abdulaziz University for Health Sciences,Saudi Arabia,"7,870",11.3,1%,50:50:00,34.0–39.2,34.8,13.9,50.1,42.9,62.9,24.7546,46.8571
601–800,Konkuk University,South Korea,"13,375",26.2,14%,49:51:00,34.0–39.2,30.6,37.8,30.5,45.8,42.1,37.5408,127.0793
601–800,Kore University of Enna,Italy,"5,053",14.5,1%,68:32:00,34.0–39.2,16.7,12.1,86.3,37.9,37.7,37.5593,14.2939
601–800,University of Kurdistan,Iran,"12,924",34.6,5%,53:47:00,34.0–39.2,14.7,14.4,74.2,41.8,30.9,36.1812,44.0069
601–800,Lahore University of Management Sciences,Pakistan,"4,499",13.8,1%,42:58:00,34.0–39.2,21.5,15.7,64.5,38.8,47.2,31.4707,74.4098
601–800,Lehigh University,United States,"6,459",11.1,18%,46:54:00,34.0–39.2,28.3,21.4,52.3,39.3,65.2,40.6049,-75.3775
601–800,University of Limerick,,"14,733",25.1,20%,50:50:00,34.0–39.2,24.2,30.3,50.8,40.7,83.0,52.6736,-8.5724
601–800,London South Bank University,United Kingdom,"13,050",16.8,35%,56:44:00,34.0–39.2,18.0,12.1,63.5,37.5,87.7,51.4981,-0.1024
601–800,University of Lorraine,France,"61,210",20.2,17%,53:47:00,34.0–39.2,23.2,17.8,54.6,39.7,64.7,48.6962,6.1765
601–800,Louisiana State University,United States,"29,191",18.2,5%,54:46:00,34.0–39.2,34.8,21.4,47.0,38.2,39.9,30.4133,-91.18
601–800,Lviv Polytechnic National University,Ukraine,"21,367",10.5,1%,42:58:00,34.0–39.2,19.4,10.7,53.7,38.0,25.3,49.8356,24.0144
601–800,Maharishi Markandeshwar University (MMU),,"9,053",13.3,10%,43:57:00,34.0–39.2,19.9,8.2,76.8,37.3,26.6,30.2753,77.0476
601–800,Majmaah University,Saudi Arabia,"20,844",14.2,2%,46:54:00,34.0–39.2,16.0,8.5,71.4,37.0,72.6,25.8645,45.4167
601–800,University of Malakand,Pakistan,"7,757",27.1,1%,29 : 71,34.0–39.2,17.0,11.4,79.3,37.5,44.8,34.6686,72.0603
601–800,Manchester Metropolitan University,United Kingdom,"29,195",15.9,19%,58:42:00,34.0–39.2,19.1,17.4,69.1,37.4,73.8,53.4703,-2.2393
601–800,Mansoura University,Egypt,"161,977",47.5,3%,52:48:00,34.0–39.2,20.7,11.5,80.6,43.7,48.9,31.0449,31.3537
601–800,Marche Polytechnic University,Italy,"10,544",22.4,5%,46:54:00,34.0–39.2,20.4,22.3,73.1,45.4,33.9,43.6174,13.514
601–800,"University of Maryland, Baltimore County",United States,"11,456",16.8,8%,46:54:00,34.0–39.2,23.0,22.2,58.4,37.9,37.7,39.2554,-76.7107
601–800,Mashhad University of Medical Sciences,Iran,"9,148",9.7,4%,58:42:00,34.0–39.2,29.3,13.5,60.9,37.0,26.2,36.2815,59.5373
601–800,Massey University,New Zealand,"17,534",16.1,29%,64:36:00,34.0–39.2,24.3,25.8,39.7,43.8,92.9,,
601–800,Medical University of Lodz,Poland,"10,294",8.6,10%,70:30:00,34.0–39.2,20.7,9.7,80.1,37.1,30.4,51.7699,19.4541
601–800,Memorial University of Newfoundland,,"16,098",14.9,21%,56:44:00,34.0–39.2,23.3,22.7,47.6,72.1,81.2,47.5741,-52.7354
601–800,Minia University,Egypt,"75,566",17.9,1%,54:46:00,34.0–39.2,15.9,8.5,74.9,37.1,46.2,28.1229,30.7347
601–800,Mizzou - University of Missouri,United States,"25,113",11.8,4%,55:45:00,34.0–39.2,34.8,25.3,52.1,40.2,44.7,38.9404,-92.3277
601–800,University of Mohaghegh Ardabili,Iran,"11,435",28.7,0%,56:44:00,34.0–39.2,20.9,11.1,75.1,37.2,27.5,38.2105,48.2961
601–800,University of Nairobi,Kenya,"52,678",34.5,2%,24 : 76,34.0–39.2,13.2,8.8,86.9,36.9,47.3,,
601–800,University of Namibia,Namibia,"29,369",21.8,3%,64:36:00,34.0–39.2,13.3,8.0,90.3,36.9,64.2,,
601–800,Nanjing Agricultural University,China,"28,184",17.0,2%,,34.0–39.2,20.5,24.1,59.5,47.5,24.9,32.0334,118.8426
601–800,Nantes Université,France,"36,281",24.0,11%,55:45:00,34.0–39.2,27.3,24.4,62.0,42.0,51.9,47.2096,-1.556
601–800,National Cheng Kung University (NCKU),,"20,080",15.1,12%,37 : 63,34.0–39.2,31.9,39.9,25.2,100.0,38.7,22.9968,120.2169
601–800,National Taiwan University of Science and Technology (Taiwan Tech),Taiwan,"8,906",17.9,18%,30 : 70,34.0–39.2,26.8,35.9,41.6,65.9,53.7,25.0133,121.5406
601–800,National Institute of Technology Silchar,India,"3,900",13.9,3%,0.929861111,34.0–39.2,28.4,16.0,61.3,38.0,17.7,24.7577,92.7923
601–800,National Yunlin University of Science and Technology,Taiwan,"9,135",21.8,6%,43:57:00,34.0–39.2,19.6,27.1,57.1,93.3,34.3,23.696,120.5341
601–800,Near East University,Northern Cyprus,"20,103",24.5,83%,43:57:00,34.0–39.2,20.7,17.4,57.6,78.5,95.7,35.2267,33.3264
601–800,"University of Nevada, Las Vegas",United States,"26,730",23.2,4%,57:43:00,34.0–39.2,31.8,24.6,50.7,37.3,31.0,36.1075,-115.1435
601–800,University of New Brunswick UNB,Canada,"8,661",14.7,15%,51:49:00,34.0–39.2,20.5,21.3,52.4,38.4,74.8,,
601–800,New Jersey Institute of Technology,United States,"9,757",14.6,24%,27 : 73,34.0–39.2,20.5,20.6,60.6,40.1,85.2,40.7424,-74.1784
601–800,University of North Carolina at Charlotte,United States,"27,579",20.5,5%,49:51:00,34.0–39.2,20.2,19.3,71.7,39.4,31.6,35.3071,-80.7352
601–800,North South University,Bangladesh,"24,760",30.9,0%,42:58:00,34.0–39.2,12.7,9.3,87.8,36.9,34.8,23.8151,90.4256
601–800,North-West University,South Africa,"40,095",24.3,3%,61:39:00,34.0–39.2,20.4,18.5,67.3,40.4,50.8,-26.6906,27.0929
601–800,Norwegian University of Life Sciences,Norway,"6,786",7.6,12%,57:43:00,34.0–39.2,25.0,13.3,61.8,41.0,72.3,59.6685,10.762
601–800,NOVA University of Lisbon,Portugal,"20,996",17.8,23%,51:49:00,34.0–39.2,23.7,31.1,42.4,54.5,64.2,38.7338,-9.1603
601–800,"University of Occupational and Environmental Health, Japan",Japan,"1,157",2.5,2%,52:48:00,34.0–39.2,27.1,10.8,78.6,42.1,20.3,33.8779,130.7138
601–800,Oklahoma State University,United States,"21,250",14.0,6%,51:49:00,34.0–39.2,29.7,20.5,53.8,39.6,45.7,36.127,-97.0737
601–800,Ontario Tech University,Canada,"8,969",28.6,8%,44:56:00,34.0–39.2,19.5,24.3,53.0,40.6,60.9,43.9456,-78.8968
601–800,The Open University,United Kingdom,"68,390",31.6,8%,65:35:00,34.0–39.2,19.2,16.9,60.5,37.1,57.3,52.0249,-0.7082
601–800,Oxford Brookes University,United Kingdom,"13,575",14.2,25%,59:41:00,34.0–39.2,24.6,22.7,52.8,37.2,83.6,51.755,-1.2242
601–800,University of Parma,Italy,"28,210",32.1,6%,58:42:00,34.0–39.2,18.3,22.1,65.1,41.9,37.1,44.8008,10.3259
601–800,Universidad Peruana Cayetano Heredia,Peru,"6,028",6.7,0%,67:33:00,34.0–39.2,20.7,12.0,80.9,41.9,47.2,-12.024,-77.0565
601–800,University of Perugia,Italy,"24,943",25.1,6%,58:42:00,34.0–39.2,21.6,19.3,73.5,41.9,46.0,43.1164,12.3869
601–800,Polytechnic University of Bari,Italy,"9,998",43.1,1%,30 : 70,34.0–39.2,18.5,23.1,73.3,57.9,35.0,41.109,16.879
601–800,Polytechnic University of Turin,Italy,"29,428",30.4,14%,30 : 70,34.0–39.2,23.9,26.7,58.4,55.7,48.7,45.0633,7.6601
601–800,Prince Sattam Bin Abdulaziz University,Saudi Arabia,"27,117",12.2,2%,58:42:00,34.0–39.2,17.7,9.9,80.4,37.8,73.6,24.1532,47.2718
601–800,Universiti Putra Malaysia,Malaysia,"18,365",11.1,26%,59:41:00,34.0–39.2,38.5,28.2,28.8,74.3,79.4,2.9995,101.7056
601–800,Qingdao University,China,"42,667",15.2,2%,64:36:00,34.0–39.2,16.4,14.7,75.9,40.9,22.1,36.0688,120.4282
601–800,Université du Québec,Canada,"50,418",17.9,12%,57:43:00,34.0–39.2,26.9,29.1,35.6,43.8,72.0,46.8133,-71.2224
601–800,University of Regina,Canada,"14,172",24.7,27%,59:41:00,34.0–39.2,17.6,18.0,64.4,39.0,68.3,50.4155,-104.5878
601–800,Rensselaer Polytechnic Institute,United States,"7,475",14.7,21%,32 : 68,34.0–39.2,28.9,26.1,51.0,59.1,72.6,,
601–800,Riga Stradiņš University,Latvia,"8,512",19.5,28%,74:26:00,34.0–39.2,16.2,11.2,75.5,38.2,73.1,56.9543,24.0551
601–800,Riphah International University,Pakistan,"23,590",21.5,0%,50:50:00,34.0–39.2,13.6,9.0,82.8,37.0,44.5,33.6169,72.972
601–800,Rovira i Virgili University,Spain,"12,975",12.6,13%,60:40:00,34.0–39.2,21.9,22.3,61.5,40.5,55.2,41.1197,1.2602
601–800,Universiti Sains Malaysia,Malaysia,"23,492",11.6,17%,64:36:00,34.0–39.2,36.1,25.3,43.2,44.8,60.6,5.3559,100.3025
601–800,San Diego State University,United States,"31,340",27.5,7%,56:44:00,34.0–39.2,24.5,11.1,69.4,37.6,33.5,32.7774,-117.0714
601–800,University of Sannio,Italy,"2,944",15.4,2%,51:49:00,34.0–39.2,18.0,18.5,70.8,55.5,28.6,41.1323,14.7801
601–800,University of Santiago de Compostela,Spain,"24,713",14.5,9%,62:38:00,34.0–39.2,24.2,19.8,55.7,40.7,45.6,42.8794,-8.5454
601–800,Savitribai Phule Pune University,India,"5,163",12.1,6%,43:57:00,34.0–39.2,40.6,23.5,46.0,38.7,22.0,18.553,73.8265
601–800,University of Campania Luigi Vanvitelli,Italy,"33,663",35.1,2%,37 : 63,34.0–39.2,23.3,8.6,78.0,37.8,28.9,41.0665,14.3306
601–800,Shanghai University,China,"37,499",13.1,7%,50:50:00,34.0–39.2,24.7,33.1,41.4,75.3,35.3,31.3148,121.3827
601–800,"Soochow University, China",,"47,989",15.5,5%,54:46:00,34.0–39.2,23.0,21.4,64.5,59.9,25.9,31.3033,120.6519
601–800,Southern Cross University,Australia,"10,866",36.1,28%,64:36:00,34.0–39.2,18.7,24.9,55.9,47.4,80.7,-28.8194,153.2995
601–800,University of Strasbourg,France,"51,028",19.8,21%,59:41:00,34.0–39.2,24.7,23.1,59.6,44.2,73.3,48.5791,7.7665
601–800,Sultan Qaboos University,Oman,"7,436",8.6,4%,50:50:00,34.0–39.2,23.1,18.4,56.9,40.6,74.9,23.5896,58.1735
601–800,University of the Sunshine Coast,Australia,"11,118",29.6,16%,69:31:00,34.0–39.2,19.5,26.5,48.0,42.9,70.5,-26.717,153.0658
601–800,Yokohama City University,Japan,"5,073",6.0,2%,56:44:00,34.0–39.2,26.4,10.2,82.8,47.6,25.2,35.3334,139.618
601–800,Zhengzhou University,China,"70,824",17.5,3%,49:51:00,34.0–39.2,17.8,15.4,71.8,38.3,22.2,34.8081,113.5358
801–1000,University of the Aegean,Greece,"22,148",68.4,1%,55:45:00,29.8–33.9,17.3,19.3,53.7,62.8,34.7,39.0851,26.569
801–1000,"University of Agriculture, Faisalabad",Pakistan,"27,826",42.4,0%,45:55:00,29.8–33.9,24.0,17.4,55.3,46.7,45.0,31.4533,73.0585
801–1000,The University of Aizu,Japan,"1,217",12.1,9%,0.520138889,29.8–33.9,21.9,13.0,50.8,40.0,74.6,37.5238,139.9374
801–1000,The University of Alabama,United States,"35,457",20.9,4%,56:44:00,29.8–33.9,27.2,19.1,54.2,37.5,31.0,33.2114,-87.5401
801–1000,Al-Azhar University,Egypt,"425,977",38.4,6%,38 : 62,29.8–33.9,14.9,9.6,63.3,37.0,48.7,,
801–1000,Al-Balqa Applied University,Jordan,"28,178",27.7,2%,59:41:00,29.8–33.9,12.9,11.7,69.8,41.2,41.3,32.025,35.7168
801–1000,University of Alcalá,Spain,"15,941",10.2,24%,60:40:00,29.8–33.9,21.3,14.0,50.8,39.4,60.4,40.4825,-3.3629
801–1000,Alexandria University,Egypt,"202,206",28.2,4%,52:48:00,29.8–33.9,18.6,13.7,56.2,40.7,46.1,31.2001,29.9187
801–1000,Aligarh Muslim University,India,"20,428",12.1,2%,40 : 60,29.8–33.9,35.7,12.9,51.1,40.0,27.7,27.9135,78.0782
801–1000,American University in Cairo,Egypt,"5,921",13.7,5%,56:44:00,29.8–33.9,24.4,26.6,32.5,40.4,64.4,30.0202,31.4991
801–1000,Anna University,India,"15,149",15.9,1%,43:57:00,29.8–33.9,21.3,26.6,53.5,45.2,16.5,13.011,80.2354
801–1000,University of Applied Sciences and Arts of Western Switzerland,Switzerland,"17,491",6.5,30%,53:47:00,29.8–33.9,21.0,11.4,41.2,40.4,90.5,47.3625,7.3522
801–1000,Aristotle University of Thessaloniki,Greece,"49,840",19.7,5%,58:42:00,29.8–33.9,19.0,16.2,56.9,41.4,40.4,40.6308,22.9592
801–1000,Athens University of Economics and Business,Greece,"9,682",51.0,6%,45:55:00,29.8–33.9,18.3,26.6,42.1,38.9,48.4,37.994,23.7327
801–1000,Universidad Autónoma de Chile,Chile,"27,474",22.9,1%,63:37:00,29.8–33.9,13.2,10.2,72.4,36.9,49.7,-33.4276,-70.6118
801–1000,University of Aveiro,Portugal,"12,566",15.1,10%,54:46:00,29.8–33.9,25.9,25.7,40.2,39.0,50.4,40.6306,-8.6575
801–1000,University of the Balearic Islands,Spain,"11,493",11.8,8%,60:40:00,29.8–33.9,19.2,16.3,51.2,37.0,49.6,39.6395,2.6446
801–1000,University of the Basque Country,Spain,"43,018",15.4,6%,55:45:00,29.8–33.9,21.5,21.8,51.7,39.6,44.5,43.3309,-2.9681
801–1000,University of Bedfordshire,United Kingdom,"13,175",29.6,59%,59:41:00,29.8–33.9,17.9,15.2,49.7,37.1,79.2,51.8779,-0.4093
801–1000,University of Beira Interior,Portugal,"7,861",17.0,22%,53:47:00,29.8–33.9,17.8,20.9,50.6,38.4,58.1,40.2779,-7.509
801–1000,University of Belgrade,Serbia,"93,251",18.9,5%,62:38:00,29.8–33.9,21.1,33.0,44.5,42.9,43.4,44.8185,20.4576
801–1000,Beni-Suef University,Egypt,"82,124",28.3,1%,50:50:00,29.8–33.9,17.9,8.7,67.8,36.9,45.9,29.0829,31.1025
801–1000,University of Bergamo,Italy,"22,115",60.9,7%,62:38:00,29.8–33.9,18.2,22.4,51.5,41.2,35.5,,
801–1000,Bharathiar University,India,"4,097",18.8,0%,63:37:00,29.8–33.9,36.6,27.6,30.4,37.5,23.7,11.039,76.8764
801–1000,Bilkent University,Turkey,"9,682",14.2,8%,46:54:00,29.8–33.9,23.4,24.2,43.5,55.3,63.7,39.8746,32.7476
801–1000,"Birla Institute of Technology and Science, Pilani",India,"15,651",18.1,2%,0.847916667,29.8–33.9,20.3,11.3,63.8,38.2,19.8,28.3588,75.588
801–1000,Boğaziçi University,Turkey,"12,614",22.3,3%,45:55:00,29.8–33.9,24.4,24.6,39.8,54.1,41.8,41.0836,29.0518
801–1000,University of Brighton,United Kingdom,"15,015",16.8,22%,60:40:00,29.8–33.9,17.9,15.6,53.0,37.6,78.0,50.8598,-0.0879
801–1000,Cairo University,Egypt,"224,216",36.8,4%,54:46:00,29.8–33.9,23.6,17.1,51.7,37.6,38.7,30.0274,31.2091
801–1000,University of Calabria,Italy,"19,788",23.2,3%,57:43:00,29.8–33.9,17.1,18.0,57.3,37.4,37.9,39.3618,16.2261
801–1000,Chapman University,United States,"9,332",12.8,8%,61:39:00,29.8–33.9,38.5,13.9,43.3,37.4,40.6,33.7933,-117.8521
801–1000,Institute of Chemical Technology,India,"2,550",17.2,0%,30 : 70,29.8–33.9,38.1,19.9,35.6,42.5,15.1,19.0238,72.8574
801–1000,Chengdu University,,"22,762",16.3,2%,59:41:00,29.8–33.9,16.5,10.6,67.5,42.7,22.4,30.6495,104.1882
801–1000,"China University of Petroleum, Beijing",China,"17,001",17.4,4%,,29.8–33.9,24.4,25.2,38.4,94.6,22.4,,
801–1000,Chulalongkorn University,,"34,095",11.5,3%,58:42:00,29.8–33.9,31.5,25.5,34.5,87.5,38.1,13.7381,100.5273
801–1000,Clemson University,United States,"23,491",15.5,6%,49:51:00,29.8–33.9,25.2,21.4,41.7,40.9,43.7,34.6734,-82.8367
801–1000,University of Clermont Auvergne,France,"36,630",20.9,15%,57:43:00,29.8–33.9,18.7,16.3,48.9,38.2,61.2,45.7699,3.0936
801–1000,Coventry University,,"32,820",16.1,47%,48:52:00,29.8–33.9,18.8,14.4,52.4,37.1,94.0,52.4074,-1.5026
801–1000,CY Cergy Paris University,France,"14,999",19.6,23%,52:48:00,29.8–33.9,22.7,24.6,35.9,42.4,88.2,49.0392,2.0762
801–1000,University of Dayton,United States,"11,183",16.5,11%,48:52:00,29.8–33.9,32.6,25.4,29.5,43.4,33.1,39.7401,-84.179
801–1000,University of Deusto,Spain,"9,518",20.1,11%,58:42:00,29.8–33.9,18.9,20.3,49.9,46.1,47.4,43.2712,-2.9386
801–1000,Diego Portales University,Chile,"17,613",16.0,2%,50:50:00,29.8–33.9,15.4,11.1,69.5,36.9,52.1,-33.4499,-70.6616
801–1000,Donghua University,China,"22,434",14.4,6%,45:55:00,29.8–33.9,20.7,19.6,55.1,65.0,32.2,31.2035,121.4146
801–1000,Duzce University,Turkey,"21,552",35.5,8%,44:56:00,29.8–33.9,20.4,14.6,56.7,83.5,26.6,40.9037,31.1751
801–1000,Edge Hill University,United Kingdom,"10,990",15.4,7%,69:31:00,29.8–33.9,17.7,14.2,58.0,37.0,49.1,53.5588,-2.8703
801–1000,"University of Engineering and Technology, Peshawar",Pakistan,"8,680",20.7,1%,0.315277778,29.8–33.9,14.2,11.8,62.0,38.2,44.6,34.0031,71.4856
801–1000,Ewha Womans University,South Korea,"14,746",17.5,13%,100:00:00,29.8–33.9,32.3,33.1,26.2,70.4,44.3,37.5619,126.9468
801–1000,Federal University of Minas Gerais,Brazil,"40,998",12.9,1%,53:47:00,29.8–33.9,34.2,19.1,42.2,38.7,29.4,-19.8707,-43.9677
801–1000,Universidade Federal de Sergipe,Brazil,"26,327",15.8,0%,51:49:00,29.8–33.9,17.4,9.9,67.2,36.9,23.1,-10.9263,-37.1031
801–1000,Firat University,Turkey,"39,961",20.6,5%,37 : 63,29.8–33.9,15.6,9.0,74.6,37.0,25.1,38.6778,39.202
801–1000,Florida Agricultural and Mechanical University,United States,"9,342",16.8,1%,66:34:00,29.8–33.9,36.8,13.8,36.8,37.3,41.5,30.4227,-84.2877
801–1000,Florida Atlantic University,United States,"24,191",18.7,10%,64:36:00,29.8–33.9,21.5,19.3,46.0,42.6,48.5,26.3737,-80.1019
801–1000,University of Foggia,Italy,"11,292",31.8,1%,63:37:00,29.8–33.9,17.9,21.3,55.7,38.8,26.3,41.4499,15.5665
801–1000,University of the Free State,South Africa,"33,826",36.8,2%,63:37:00,29.8–33.9,18.1,17.6,49.4,40.1,47.3,-29.1076,26.1925
801–1000,Fujita Health University,Japan,"3,082",3.8,1%,57:43:00,29.8–33.9,25.1,11.7,64.0,40.2,20.5,35.0703,136.9998
801–1000,Fuzhou University,China,"39,987",16.8,1%,39 : 61,29.8–33.9,17.2,14.4,60.1,55.0,29.0,,
801–1000,University of Girona,Spain,"14,011",21.1,15%,57:43:00,29.8–33.9,18.9,21.9,52.8,39.6,53.0,41.9857,2.8272
801–1000,Guangdong University of Technology,China,"46,040",18.1,0%,29 : 71,29.8–33.9,16.2,14.8,69.9,61.1,25.1,23.0334,113.3973
801–1000,Hiroshima University,Japan,"14,612",8.1,9%,37 : 63,29.8–33.9,32.5,23.5,29.7,49.6,38.6,34.3991,132.714
801–1000,Indian Institute of Technology Patna,India,"2,203",17.9,0%,0.806944444,29.8–33.9,27.2,24.0,50.1,37.1,17.8,25.5357,84.8512
801–1000,Indian Institute of Technology Gandhinagar,India,"1,782",15.1,1%,26 : 74,29.8–33.9,34.0,27.5,34.2,44.8,23.9,23.2114,72.6842
801–1000,Universitat Internacional de Catalunya,Spain,"5,172",14.0,34%,63:37:00,29.8–33.9,17.6,15.6,57.0,40.2,63.7,41.4057,2.1235
801–1000,University of Ioannina,Greece,"32,168",39.6,3%,69:31:00,29.8–33.9,15.5,14.5,60.6,39.0,43.4,39.615,20.8444
801–1000,ISCTE-University Institute of Lisbon,Portugal,"9,374",24.9,17%,52:48:00,29.8–33.9,24.0,32.0,36.0,41.8,55.5,38.7478,-9.1534
801–1000,The Islamia University of Bahawalpur,Pakistan,"35,698",28.5,0%,46:54:00,29.8–33.9,21.4,12.1,62.9,37.1,43.2,29.3981,71.6908
801–1000,Istanbul Medeniyet University,Turkey,"10,536",13.4,3%,52:48:00,29.8–33.9,17.7,9.9,66.4,37.0,22.7,40.995,29.0644
801–1000,Iuliu Haţieganu University of Medicine and Pharmacy Cluj-Napoca,Romania,"8,017",7.9,33%,66:34:00,29.8–33.9,20.7,9.2,61.7,37.3,52.1,,
801–1000,University of Jaén,Spain,"13,767",16.4,9%,57:43:00,29.8–33.9,18.5,17.6,54.7,37.1,44.7,37.7884,-3.7772
801–1000,Juntendo University,Japan,"5,980",4.6,3%,55:45:00,29.8–33.9,33.5,18.6,47.3,52.9,22.8,35.7024,139.7607
801–1000,Kansas State University,United States,"19,927",13.1,7%,51:49:00,29.8–33.9,27.5,20.8,41.0,42.2,46.9,39.1974,-96.5847
801–1000,Karlstad University,Sweden,"9,698",14.0,%,63:37:00,29.8–33.9,17.3,14.4,54.6,37.5,41.2,59.4064,13.5826
801–1000,Keio University,Japan,"33,636",10.1,8%,37 : 63,29.8–33.9,31.8,24.7,44.3,44.9,33.7,35.649,139.7432
801–1000,Kerman University of Medical Sciences,Iran,"5,226",3.4,2%,,29.8–33.9,30.6,9.9,51.2,41.0,20.8,30.2439,57.107
801–1000,Kindai University,Japan,"33,234",14.6,2%,32 : 68,29.8–33.9,19.7,11.0,59.8,41.3,27.6,34.6501,135.5881
801–1000,King Faisal University,Saudi Arabia,"27,805",13.1,2%,67:33:00,29.8–33.9,18.4,9.4,55.4,43.0,74.1,,
801–1000,King Khalid University,Saudi Arabia,"39,389",8.3,7%,55:45:00,29.8–33.9,21.8,8.9,52.9,37.9,79.3,18.2477,42.5602
