University,Name,Location,Nostudent,Nostudentperstaff,InternationalStudent,FemaleMaleRatio,OverAllScore,TeachingScore,ResearchScore,CitationsScore,IndustryIncomeScore,InternationalOutlookScore,Latitude,Longitude,Continent
1,University of Oxford,United Kingdom,20965,10.6,0.42,48:52:00,96.4,92.3,99.7,99.0,74.9,96.2,51.77067317196132,-1.5521001611093754,Europe
2,Harvard University,United States,21887,9.6,0.25,50:50:00,95.2,94.8,99.0,99.3,49.5,80.5,42.13388624163738,-70.85459664241168,North America
3,University of Cambridge,United Kingdom,20185,11.3,0.39,47:53:00,94.8,90.9,99.5,97.0,54.2,95.8,52.02441131009344,0.2469295397143723,Europe
3,Stanford University,United States,16164,7.1,0.24,46:54:00,94.8,94.2,96.7,99.8,65.0,79.8,37.25666626957926,-121.90384842414684,North America
5,Massachusetts Institute of Technology,United States,11415,8.2,0.33,40 : 60,94.2,90.7,93.6,99.8,90.9,89.3,42.386913606996224,-71.23165879416048,North America
6,California Institute of Technology,United States,2237,6.2,0.34,37 : 63,94.1,90.9,97.0,97.3,89.8,83.6,34.22319852147905,-118.17363111285808,North America
7,Princeton University,United States,8279,8.0,0.23,46:54:00,92.4,87.6,95.9,99.1,66.0,80.3,40.07691814041341,-74.5986768207565,North America
8,"University of California, Berkeley",United States,40921,18.4,0.24,52:48:00,92.1,86.4,95.8,99.0,76.8,78.4,38.12001980396002,-122.0477208435546,North America
9,Yale University,United States,13482,5.9,0.21,52:48:00,91.4,92.6,92.7,97.0,55.0,70.9,41.11047755927272,-73.18769947453885,North America
10,Imperial College London,United Kingdom,18545,11.2,0.61,40 : 60,90.4,82.8,90.8,98.3,59.8,97.5,51.21935970247255,-0.0996255817420069,Europe
11,Columbia University,United States,21781,4.5,0.38,,89.4,89.4,87.7,97.1,44.8,79.9,40.69072565701818,-73.77385854771363,North America
11,ETH Zurich,Switzerland,21665,14.8,0.41,33 : 67,89.4,82.6,95.4,90.7,59.1,97.7,47.090203378810266,8.513172206577977,Europe
13,The University of Chicago,United States,15366,6.0,0.36,47:53:00,88.9,86.5,88.8,97.7,56.2,74.2,41.90558842612023,-87.77475718454885,North America
14,University of Pennsylvania,United States,21453,6.3,0.23,53:47:00,88.8,86.0,88.8,97.0,75.8,71.5,40.20225727184007,-75.26529431845205,North America
15,Johns Hopkins University,United States,17584,4.7,0.29,53:47:00,88.3,79.4,91.5,97.0,89.5,75.3,39.09370749248739,-76.73271078521799,North America
16,Tsinghua University,China,38324,11.6,0.1,,88.2,90.1,97.4,88.0,100.0,40.3,39.867610804988544,116.36826685619116,Asia
17,Peking University,China,31994,10.3,0.19,,88.1,92.5,96.7,80.4,91.8,65.0,40.02338206681816,116.09361801588403,Asia
18,University of Toronto,Canada,77468,25.8,0.26,56:44:00,87.4,77.3,93.3,92.8,65.5,89.7,43.944487741753775,-79.6803388595485,North America
19,National University of Singapore,Singapore,32337,19.8,0.25,51:49:00,87.1,76.4,93.0,90.2,87.0,94.0,1.502622785226844,103.83411369817964,Asia
20,Cornell University,United States,24027,10.3,0.26,51:49:00,85.9,80.2,86.1,97.3,40.4,76.9,42.536226109142966,-76.24660872503338,North America
21,"University of California, Los Angeles",United States,42434,9.7,0.16,56:44:00,85.8,80.4,88.9,95.4,58.8,65.0,34.30575343437528,-118.40962130008674,North America
22,UCL,United Kingdom,36790,10.3,0.6,59:41:00,85.7,74.5,85.4,97.9,44.5,96.7,51.58672662532148,0.1176938057503528,Europe
23,University of Michigan-Ann Arbor,United States,45912,8.2,0.17,50:50:00,82.9,79.3,84.6,93.6,48.7,59.2,42.52437964844605,-83.52272841429532,North America
24,New York University,United States,36337,9.8,0.42,57:43:00,82.7,74.2,84.0,95.0,44.6,74.7,40.7434611126424,-74.09901943011967,North America
25,Duke University,United States,16091,4.2,0.24,52:48:00,82.6,78.1,76.2,95.7,99.6,68.0,35.81349366854532,-79.10706466861883,North America
26,Northwestern University,United States,19175,13.2,0.2,51:49:00,82.1,71.7,80.7,97.5,85.0,67.0,42.20786197474336,-87.9528322070292,North America
26,University of Washington,United States,47727,10.8,0.18,55:45:00,82.1,71.6,82.8,98.9,53.9,63.0,47.76368960075607,-122.46855511569224,North America
28,Carnegie Mellon University,United States,14305,12.9,0.47,44:56:00,81.1,65.4,81.8,98.7,55.2,80.1,40.66213291019535,-79.6876780422115,North America
29,University of Edinburgh,United Kingdom,32845,11.8,0.47,62:38:00,79.8,66.9,74.5,97.1,40.9,95.6,56.23205400234322,-3.455266712734665,Europe
30,Technical University of Munich,Germany,33960,40.6,0.36,37 : 63,79.3,69.8,82.2,84.5,100.0,77.7,48.00416253287752,11.30376188676562,Europe
31,University of Hong Kong,Hong Kong,18087,18.2,0.43,54:46:00,78.5,65.6,74.1,92.4,60.6,98.7,22.266767392837973,113.91387901638232,Asia
32,"University of California, San Diego",United States,37030,11.3,0.28,48:52:00,78.1,60.2,77.2,98.2,93.0,67.8,32.61016856995832,-116.93402991020376,North America
33,LMU Munich,Germany,35003,34.2,0.19,61:39:00,77.7,67.3,78.3,87.4,100.0,70.5,48.00261557867107,11.72989616946899,Europe
34,University of Melbourne,Australia,49588,23.8,0.47,58:42:00,77.6,67.1,75.9,85.8,78.1,93.6,-37.68991920061353,144.823880655641,Oceania
35,King’s College London,United Kingdom,28965,11.8,0.52,63:37:00,77.1,58.0,72.9,98.2,45.6,96.1,51.68758639240567,-0.3199061884392311,Europe
36,"Nanyang Technological University, Singapore",Singapore,24651,15.1,0.25,48:52:00,77.0,60.9,77.9,87.2,84.5,94.5,1.1508173780633892,103.47690246650644,Asia
37,London School of Economics and Political Science,United Kingdom,11120,11.9,0.73,55:45:00,76.5,59.2,74.3,95.1,37.8,92.8,51.80140959162391,-0.3338577807210678,Europe
38,Georgia Institute of Technology,United States,28826,24.7,0.4,33 : 67,76.0,60.2,75.9,91.4,64.9,81.2,33.72298627356299,-84.68270261483205,North America
39,The University of Tokyo,Japan,26112,10.5,0.15,,75.9,88.1,91.4,55.5,86.7,43.3,35.88632180456943,139.9241312780871,Asia
40,University of British Columbia,Canada,56452,18.9,0.34,55:45:00,75.7,62.9,73.1,88.8,47.9,94.8,49.09285392427777,-122.99491984503436,North America
41,École Polytechnique Fédérale de Lausanne,Switzerland,11641,12.3,0.62,30 : 70,75.4,65.6,70.7,84.5,71.7,98.0,46.57836904230479,6.766737252050688,Europe
42,KU Leuven,Belgium,47663,36.5,0.18,51:49:00,74.6,59.7,74.9,86.7,99.2,76.8,50.83445753245461,4.972107516429222,Europe
43,Universität Heidelberg,Germany,19347,13.5,0.21,55:45:00,74.1,67.2,61.5,96.0,55.7,71.2,49.44705923914797,8.532953626663586,Europe
44,Monash University,Australia,58725,42.5,0.41,57:43:00,73.6,56.9,68.7,90.4,78.4,91.0,-38.15071476603833,144.8767909108632,Oceania
45,Chinese University of Hong Kong,Hong Kong,18468,19.0,0.21,,73.2,59.1,61.1,95.7,60.9,92.5,22.21654789176962,114.17472030688218,Asia
46,McGill University,Canada,32309,12.5,0.3,60:40:00,73.0,62.0,72.4,82.5,43.5,91.0,45.7959475329577,-73.28152208747817,North America
47,Paris Sciences et Lettres - PSL Research University Paris,France,16218,15.0,0.22,51:49:00,72.9,68.2,73.5,75.5,78.8,76.3,48.77956633743612,2.5581888463280658,Europe
48,University of Illinois at Urbana-Champaign,United States,48674,17.4,0.22,48:52:00,72.7,67.1,78.9,78.1,50.1,56.2,40.23564206690304,-88.16909750676083,North America
49,Karolinska Institute,Sweden,8021,9.9,0.27,70:30:00,72.4,51.1,68.8,94.0,66.4,87.3,59.33967510179168,18.011542921314327,Europe
50,University of Texas at Austin,United States,49171,17.4,0.1,53:47:00,72.3,66.2,73.1,87.5,51.3,40.1,30.474605243761616,-97.6347375428005,North America
51,Fudan University,China,36318,11.9,0.09,52:48:00,72.0,71.8,75.8,74.5,77.3,45.2,31.202957815592544,121.66537839173404,Asia
52,Shanghai Jiao Tong University,China,37478,11.5,0.08,42:58:00,71.2,75.3,82.9,59.9,100.0,43.7,31.10943622994717,121.61573958496402,Asia
53,The University of Queensland,Australia,41372,34.2,0.41,55:45:00,71.1,55.9,66.5,84.3,82.0,93.2,-27.23319384725137,153.0138525225519,Oceania
54,University of Manchester,England,37035,14.2,0.44,55:45:00,70.9,54.5,63.7,91.3,45.3,92.7,53.6325258761596,-2.2408731110991,Europe
54,The University of Sydney,Australia,45853,19.0,0.45,58:42:00,70.9,53.1,65.8,88.5,73.2,90.6,-34.12658623985571,151.25171251123157,Oceania
56,Seoul National University,South Korea,26209,15.1,0.1,,70.8,75.2,76.2,67.6,96.6,35.9,37.38682881610494,126.65685076441288,Asia
57,Washington University in St Louis,United States,14420,7.8,0.24,53:47:00,70.6,60.3,56.8,98.2,47.5,64.0,38.80315698952022,-90.31546288904384,North America
58,The Hong Kong University of Science and Technology,Hong Kong,9864,21.0,0.32,,70.5,51.4,63.4,87.7,95.0,97.7,22.10811227408128,114.42652014580374,Asia
59,Wageningen University & Research,Netherlands,15404,18.6,0.27,55:45:00,70.3,50.4,60.2,93.2,100.0,88.8,51.73868873746409,5.42164609499891,Europe
60,University of Amsterdam,Netherlands,29157,14.5,0.32,59:41:00,69.6,48.0,64.1,93.3,44.4,91.9,52.5155816313976,5.083939077924429,Europe
61,Brown University,United States,10037,10.1,0.21,,69.3,64.5,58.0,89.5,39.0,63.3,42.03585488803879,-71.32893218282878,North America
62,Australian National University,Australia,16758,14.6,0.51,52:48:00,69.0,51.3,69.2,81.8,45.6,96.0,-35.16263114553925,149.07326652340834,Oceania
63,"University of California, Davis",United States,37639,13.1,0.18,60:40:00,68.5,59.7,66.3,80.9,52.4,68.7,38.35028522398388,-121.53329193643482,North America
64,"University of California, Santa Barbara",United States,25860,28.5,0.2,54:46:00,68.4,44.6,61.5,96.2,80.1,76.0,34.341911873402914,-119.9175500285614,North America
65,University of Southern California,United States,40549,12.6,0.22,49:51:00,68.3,58.9,58.6,90.4,43.8,63.7,34.02817338851973,-118.5526110297476,North America
66,Utrecht University,Netherlands,32532,17.1,0.13,62:38:00,68.2,44.3,66.0,91.2,72.7,78.8,51.802739250099016,5.042225147986335,Europe
67,Zhejiang University,China,46124,12.0,0.16,,68.1,67.3,74.8,62.8,100.0,55.1,30.116737699822647,120.00488032504408,Asia
68,Kyoto University,Japan,22269,9.2,0.12,25 : 75,68.0,77.5,79.1,52.3,88.6,40.5,35.16985989266993,135.9321774616198,Asia
69,University of North Carolina at Chapel Hill,United States,31080,7.9,0.08,59:41:00,67.8,58.9,59.7,93.3,46.0,41.7,35.67391211088726,-79.2073529362898,North America
70,Delft University of Technology,Netherlands,20299,16.1,0.31,31 : 69,67.7,58.8,76.4,59.1,93.4,94.2,52.102485606725566,4.100123029575244,Europe
71,Boston University,United States,27243,10.8,0.31,59:41:00,67.5,55.9,56.1,92.9,41.1,65.9,42.26737661451794,-71.39719647233913,North America
71,UNSW Sydney,Australia,45133,36.3,0.4,47:53:00,67.5,51.1,59.0,85.9,63.5,95.1,-33.88937410004172,150.96339428162634,Oceania
73,Charité - Universitätsmedizin Berlin,Germany,8429,18.0,0.21,64:36:00,67.2,48.5,52.2,98.8,87.1,69.3,52.39844524972861,13.54865773659877,Europe
74,University of Science and Technology of China,China,18573,8.1,0.06,,67.1,65.0,64.9,78.8,69.4,36.9,31.635582483702542,117.49221950633118,Asia
75,University of Groningen,Netherlands,30009,24.4,0.28,52:48:00,66.6,45.4,57.6,90.4,75.8,89.8,53.04941032973768,6.355305935079718,Europe
76,University of Bristol,England,25680,14.6,0.31,56:44:00,66.5,43.8,53.4,98.6,43.5,89.4,51.48093656266826,-2.3762489842724657,Europe
77,Leiden University,Netherlands,33648,19.3,0.2,60:40:00,66.4,43.2,64.4,86.6,68.4,85.4,52.37625733984204,4.3002761425297935,Europe
78,Yonsei University (Seoul campus),South Korea,19481,14.7,0.17,50:50:00,66.3,67.0,68.9,63.9,94.8,52.8,37.4203647911088,126.81234777623447,Asia
79,Hong Kong Polytechnic University,Hong Kong,19046,28.9,0.3,51:49:00,65.8,46.6,57.0,86.7,56.0,97.6,22.41069714900716,114.47371687117874,Asia
80,Erasmus University Rotterdam,Netherlands,31668,33.9,0.22,53:47:00,65.7,38.6,57.1,95.6,64.4,89.7,52.09016282717281,4.715614433445197,Europe
81,University of Wisconsin-Madison,United States,40701,10.0,0.14,,65.5,59.7,62.9,78.7,48.4,51.8,43.19755685838495,-89.50336385258113,North America
82,Emory University,United States,13190,4.2,0.2,60:40:00,65.3,54.8,46.0,98.0,48.6,59.8,33.519132540020024,-84.60786827498951,North America
82,University of Glasgow,Scotland,28540,13.5,0.41,59:41:00,65.3,43.3,50.8,96.5,41.9,93.8,55.92724515175324,-4.3187736631642215,Europe
82,University of Zurich,Switzerland,25003,13.7,0.22,56:44:00,65.3,51.5,50.7,87.5,57.6,93.0,47.41020791720185,8.59992332585401,Europe
85,McMaster University,Canada,26403,29.0,0.2,56:44:00,65.1,42.7,51.1,94.6,89.9,84.7,43.30149831583314,-80.08534219084227,North America
86,Humboldt University of Berlin,Germany,34399,53.2,0.17,,64.9,55.2,64.3,75.6,42.8,70.5,52.78570616927376,13.332600510405888,Europe
86,University of Tübingen,Germany,20620,27.5,0.13,59:41:00,64.9,51.1,58.2,84.5,79.9,64.1,48.79352255599732,8.99405061012835,Europe
88,University of Adelaide,Australia,23102,32.8,0.32,49:51:00,64.7,42.7,51.8,92.2,65.3,93.6,-34.94653444999407,138.43542531810394,Oceania
89,University of Bonn,Germany,27210,47.5,0.17,56:44:00,64.6,51.6,56.1,86.0,55.0,68.7,51.02180614466843,6.793548053776655,Europe
90,Sorbonne University,France,41443,13.9,0.21,59:41:00,64.5,58.7,58.3,76.6,40.0,72.3,48.58156171630037,2.3772692090618555,Europe
91,Free University of Berlin,Germany,26497,41.9,0.23,62:38:00,64.2,54.2,62.4,74.8,41.7,76.4,52.63466729137443,13.551674603118691,Europe
91,Korea Advanced Institute of Science and Technology (KAIST),South Korea,9946,10.7,0.09,0.929861111,64.2,64.5,66.0,65.7,100.0,38.2,36.37486881258177,127.15501262388942,Asia
93,Université Paris-Saclay,France,44443,14.9,0.19,49:51:00,63.9,56.7,55.2,79.1,54.6,69.7,48.998527824078266,2.3425286429294427,Europe
94,University of Bern,Switzerland,11728,17.2,0.17,58:42:00,63.7,46.0,46.5,90.7,86.3,88.2,46.68392389505471,7.343547644200039,Europe
95,"University of California, Irvine",United States,36655,16.9,0.28,52:48:00,63.6,43.5,51.6,93.6,59.4,73.2,33.5368634868572,-118.04780037350662,North America
95,Institut Polytechnique de Paris,France,5999,6.7,0.41,24 : 76,63.6,58.5,58.8,64.8,72.7,95.6,48.634022062886544,1.982587770385074,Europe
95,Nanjing University,China,36426,16.5,0.08,54:46:00,63.6,58.4,58.2,74.3,87.3,55.2,32.04313858163563,118.63959476215678,Asia
98,Vanderbilt University,United States,12696,3.8,0.15,55:45:00,63.5,49.5,47.5,96.5,66.7,50.6,36.20741209759529,-86.72119250468396,North America
99,City University of Hong Kong,Hong Kong,9099,12.1,0.62,54:46:00,63.4,47.2,53.0,79.9,76.6,99.6,22.31281504835285,114.32988249330587,Asia
99,RWTH Aachen University,Germany,39738,50.0,0.28,33 : 67,63.4,56.8,64.5,66.1,93.8,65.1,50.73119060881731,5.9071484124444105,Europe
